[
  {
    "city": "Ho Chi Minh City",
    "admin": "Hồ Chí Minh",
    "lat": "10.776577",
    "lng": "106.70085"
  },
  {
    "city": "Hanoi",
    "admin": "Hà Nội",
    "lat": "21.028167",
    "lng": "105.854152"
  },
  {
    "city": "Haiphong",
    "admin": "Hải Phòng",
    "lat": "20.864807",
    "lng": "106.683449"
  },
  {
    "city": "Cần Thơ",
    "admin": "Cần Thơ",
    "lat": "10.037105",
    "lng": "105.788249"
  },
  {
    "city": "Đà Nẵng",
    "admin": "Đà Nẵng",
    "lat": "16.074806",
    "lng": "108.223958"
  },
  {
    "city": "Huế",
    "admin": "Thừa Thiên-Huế",
    "lat": "16.461901",
    "lng": "107.595458"
  },
  {
    "city": "Quy Nhơn",
    "admin": "Bình Định",
    "lat": "13.768898",
    "lng": "109.228563"
  },
  {
    "city": "Hiệp Hòa",
    "admin": "Đồng Nai",
    "lat": "10.933333",
    "lng": "106.833333"
  },
  {
    "city": "Phú Vinh",
    "admin": "Nghệ An",
    "lat": "18.716667",
    "lng": "105.7"
  },
  {
    "city": "Thành Phố Thái Nguyên",
    "admin": "Thái Nguyên",
    "lat": "21.59422",
    "lng": "105.848172"
  },
  {
    "city": "Nha Trang",
    "admin": "Khánh Hòa",
    "lat": "12.248089",
    "lng": "109.19436"
  },
  {
    "city": "Cà Mau",
    "admin": "Cà Mau",
    "lat": "9.176817",
    "lng": "105.152421"
  },
  {
    "city": "Việt Trì",
    "admin": "Phú Thọ",
    "lat": "21.32274",
    "lng": "105.401981"
  },
  {
    "city": "Long Xuyên",
    "admin": "An Giang",
    "lat": "10.386392",
    "lng": "105.435178"
  },
  {
    "city": "Buôn Ma Thuột",
    "admin": "Đắk Lắk",
    "lat": "12.674192",
    "lng": "108.043542"
  },
  {
    "city": "Phan Thiết",
    "admin": "Bình Thuận",
    "lat": "10.928888",
    "lng": "108.102078"
  },
  {
    "city": "Xóm Rạch Giồng",
    "admin": "Kiến Giang",
    "lat": "10.033333",
    "lng": "105.066667"
  },
  {
    "city": "Sóc Trăng",
    "admin": "Sóc Trăng",
    "lat": "9.599946",
    "lng": "105.971932"
  },
  {
    "city": "Đà Lạt",
    "admin": "Lâm Đồng",
    "lat": "11.935883",
    "lng": "108.442891"
  },
  {
    "city": "Quảng Ngãi",
    "admin": "Quảng Ngãi",
    "lat": "15.120467",
    "lng": "108.792318"
  },
  {
    "city": "Vũng Tàu",
    "admin": "Bà Rịa-Vũng Tàu",
    "lat": "10.35",
    "lng": "107.066667"
  },
  {
    "city": "Thủ Dầu Một",
    "admin": "Bình Dương",
    "lat": "10.980396",
    "lng": "106.651905"
  },
  {
    "city": "Thành Phố Nam Định",
    "admin": "Nam Định",
    "lat": "20.433886",
    "lng": "106.177286"
  },
  {
    "city": "Thành phố Bạc Liêu",
    "admin": "Bạc Liêu",
    "lat": "9.294141",
    "lng": "105.727764"
  },
  {
    "city": "Thành Phố Thái Bình",
    "admin": "Thái Bình",
    "lat": "20.45",
    "lng": "106.340018"
  },
  {
    "city": "Tinh Xa",
    "admin": "Thanh Hóa",
    "lat": "19.8",
    "lng": "105.783333"
  },
  {
    "city": "Sơn Vi",
    "admin": "Hà Nội",
    "lat": "21.116667",
    "lng": "105.533333"
  },
  {
    "city": "Động Hỏi",
    "admin": "Quảng Bình",
    "lat": "17.5",
    "lng": "106.633333"
  },
  {
    "city": "Phan Rang-Tháp Chàm",
    "admin": "Ninh Thuận",
    "lat": "11.564315",
    "lng": "108.988581"
  },
  {
    "city": "Hà Tĩnh",
    "admin": "Hà Tĩnh",
    "lat": "18.34282",
    "lng": "105.905695"
  },
  {
    "city": "Cao Lãnh",
    "admin": "Đồng Tháp",
    "lat": "10.460171",
    "lng": "105.632944"
  },
  {
    "city": "Thành Phố Lạng Sơn",
    "admin": "Lạng Sơn",
    "lat": "21.852639",
    "lng": "106.76101"
  },
  {
    "city": "Cam Ranh",
    "admin": "Khánh Hòa",
    "lat": "11.9",
    "lng": "109.216667"
  },
  {
    "city": "Plei Khưn",
    "admin": "Gia Lai",
    "lat": "13.95",
    "lng": "108.033333"
  },
  {
    "city": "Tân An",
    "admin": "Long An",
    "lat": "10.535893",
    "lng": "106.41366"
  },
  {
    "city": "Cẩm Phả Mines",
    "admin": "Quảng Ninh",
    "lat": "21.016667",
    "lng": "107.3"
  },
  {
    "city": "Trà Vinh",
    "admin": "Trà Vinh",
    "lat": "9.947188",
    "lng": "106.342249"
  },
  {
    "city": "Thành Phố Ninh Bình",
    "admin": "Ninh Bình",
    "lat": "20.258085",
    "lng": "105.979651"
  },
  {
    "city": "Tây Ninh",
    "admin": "Tây Ninh",
    "lat": "11.310043",
    "lng": "106.098275"
  },
  {
    "city": "Mỹ Hòa",
    "admin": "Tiền Giang",
    "lat": "10.37886",
    "lng": "106.382463"
  },
  {
    "city": "Kon Tum",
    "admin": "Kon Tum",
    "lat": "14.383333",
    "lng": "107.983333"
  },
  {
    "city": "Thành Phố Hòa Bình",
    "admin": "Hòa Bình",
    "lat": "20.817166",
    "lng": "105.33759"
  },
  {
    "city": "An Long",
    "admin": "Vĩnh Long",
    "lat": "10.284465",
    "lng": "105.94246"
  },
  {
    "city": "Yên Bái",
    "admin": "Yên Bái",
    "lat": "21.722881",
    "lng": "104.911296"
  },
  {
    "city": "Quảng Trị",
    "admin": "Quảng Trị",
    "lat": "16.75",
    "lng": "107.2"
  },
  {
    "city": "Châu Phong",
    "admin": "An Giang",
    "lat": "10.716667",
    "lng": "105.133333"
  },
  {
    "city": "Tuy Hòa",
    "admin": "Phú Yên",
    "lat": "13.095457",
    "lng": "109.320939"
  },
  {
    "city": "Lào Cai",
    "admin": "Lào Cai",
    "lat": "22.485555",
    "lng": "103.970661"
  },
  {
    "city": "Hàn Thượng",
    "admin": "Hải Dương",
    "lat": "20.95",
    "lng": "106.316667"
  },
  {
    "city": "Bắc Giang",
    "admin": "Bắc Giang",
    "lat": "21.273073",
    "lng": "106.194597"
  },
  {
    "city": "Nà Hoàng",
    "admin": "Cao Bằng",
    "lat": "22.65",
    "lng": "106.25"
  },
  {
    "city": "Thành Phố Hà Giang",
    "admin": "Hà Giang",
    "lat": "22.823333",
    "lng": "104.983572"
  },
  {
    "city": "Thành Phố Tuyên Quang",
    "admin": "Tuyên Quang",
    "lat": "21.823559",
    "lng": "105.21424"
  },
  {
    "city": "Bắc Kạn",
    "admin": "Bắc Kạn",
    "lat": "22.147009",
    "lng": "105.83481"
  },
  {
    "city": "Bản Lân",
    "admin": "Sơn La",
    "lat": "21.333333",
    "lng": "103.9"
  },
  {
    "city": "Đông Hà",
    "admin": "Quảng Trị",
    "lat": "16.817615",
    "lng": "107.100772"
  },
  {
    "city": "Luân Châu",
    "admin": "Điện Biên",
    "lat": "21.733333",
    "lng": "103.316667"
  },
  {
    "city": "Kiến Đức",
    "admin": "Đắk Nông",
    "lat": "11.992172",
    "lng": "107.510893"
  },
  {
    "city": "Kẻ Sặt",
    "admin": "Hải Dương",
    "lat": "20.910072",
    "lng": "106.147705"
  },
  {
    "city": "Lộc Bình",
    "admin": "Lạng Sơn",
    "lat": "21.758733",
    "lng": "106.923346"
  },
  {
    "city": "Phú Hòa",
    "admin": "Gia Lai",
    "lat": "14.100048",
    "lng": "107.96896"
  },
  {
    "city": "Đại Nghĩa",
    "admin": "Hà Nội",
    "lat": "20.68667",
    "lng": "105.744712"
  },
  {
    "city": "Cẩm Xuyên",
    "admin": "Hà Tĩnh",
    "lat": "18.250291",
    "lng": "106.00132"
  },
  {
    "city": "Neo",
    "admin": "Bắc Giang",
    "lat": "21.20048",
    "lng": "106.247387"
  },
  {
    "city": "Thị Trấn Hùng Quốc",
    "admin": "Cao Bằng",
    "lat": "22.828977",
    "lng": "106.323352"
  },
  {
    "city": "Tam Đảo",
    "admin": "Vĩnh Phúc",
    "lat": "21.393237",
    "lng": "105.614412"
  },
  {
    "city": "Tân Thạnh",
    "admin": "Long An",
    "lat": "10.606662",
    "lng": "106.047142"
  },
  {
    "city": "Phố Mới",
    "admin": "Bắc Ninh",
    "lat": "21.153281",
    "lng": "106.151644"
  },
  {
    "city": "Phát Diệm",
    "admin": "Ninh Bình",
    "lat": "20.090538",
    "lng": "106.083226"
  },
  {
    "city": "Vũng Liêm",
    "admin": "Vĩnh Long",
    "lat": "10.095755",
    "lng": "106.185479"
  },
  {
    "city": "Triệu Sơn",
    "admin": "Thanh Hóa",
    "lat": "19.819128",
    "lng": "105.603916"
  },
  {
    "city": "Quảng Phú",
    "admin": "Đắk Lắk",
    "lat": "12.819647",
    "lng": "108.077381"
  },
  {
    "city": "Rừng Thông",
    "admin": "Thanh Hóa",
    "lat": "19.81906",
    "lng": "105.732795"
  },
  {
    "city": "Mường Nhé",
    "admin": "Điện Biên",
    "lat": "22.192362",
    "lng": "102.457901"
  },
  {
    "city": "Sa Thầy",
    "admin": "Kon Tum",
    "lat": "14.413773",
    "lng": "107.793393"
  },
  {
    "city": "Gia Ray",
    "admin": "Đồng Nai",
    "lat": "10.926149",
    "lng": "107.401722"
  },
  {
    "city": "Ngọc Lặc",
    "admin": "Thanh Hóa",
    "lat": "20.091891",
    "lng": "105.367607"
  },
  {
    "city": "Đạ Tẻh",
    "admin": "Lâm Đồng",
    "lat": "11.511481",
    "lng": "107.490921"
  },
  {
    "city": "Kỳ Sơn",
    "admin": "Hòa Bình",
    "lat": "20.886679",
    "lng": "105.352438"
  },
  {
    "city": "Thị Trấn Vĩnh Lộc",
    "admin": "Tuyên Quang",
    "lat": "22.143598",
    "lng": "105.271918"
  },
  {
    "city": "Tô Hạp",
    "admin": "Khánh Hòa",
    "lat": "12.005815",
    "lng": "108.94868"
  },
  {
    "city": "Khe Sanh",
    "admin": "Quảng Trị",
    "lat": "16.628248",
    "lng": "106.73884"
  },
  {
    "city": "Cái Nước",
    "admin": "Cà Mau",
    "lat": "8.942308",
    "lng": "105.014105"
  },
  {
    "city": "Khánh Vĩnh",
    "admin": "Khánh Hòa",
    "lat": "12.283545",
    "lng": "108.904703"
  },
  {
    "city": "Cầu Diễn",
    "admin": "Hà Nội",
    "lat": "21.03929",
    "lng": "105.766593"
  },
  {
    "city": "Chờ",
    "admin": "Bắc Ninh",
    "lat": "21.194911",
    "lng": "105.954715"
  },
  {
    "city": "Tiên Lãng",
    "admin": "Hải Phòng",
    "lat": "20.724645",
    "lng": "106.553906"
  },
  {
    "city": "Gò Quao",
    "admin": "Kiến Giang",
    "lat": "9.733196",
    "lng": "105.273935"
  },
  {
    "city": "Phú Quốc",
    "admin": "Kiến Giang",
    "lat": "10.216063",
    "lng": "103.958709"
  },
  {
    "city": "Vân Tùng",
    "admin": "Bắc Kạn",
    "lat": "22.430819",
    "lng": "105.996873"
  },
  {
    "city": "Quận Chín",
    "admin": "Hồ Chí Minh",
    "lat": "10.839702",
    "lng": "106.77093"
  },
  {
    "city": "Ba Tri",
    "admin": "Bến Tre",
    "lat": "10.044273",
    "lng": "106.590203"
  },
  {
    "city": "Trà Ôn",
    "admin": "Vĩnh Long",
    "lat": "9.962606",
    "lng": "105.921679"
  },
  {
    "city": "Khoái Châu",
    "admin": "Hưng Yên",
    "lat": "20.839116",
    "lng": "105.977553"
  },
  {
    "city": "Nhà Bàng",
    "admin": "An Giang",
    "lat": "10.625024",
    "lng": "105.008545"
  },
  {
    "city": "Thị Trấn Long Điền",
    "admin": "Bà Rịa-Vũng Tàu",
    "lat": "10.485573",
    "lng": "107.212256"
  },
  {
    "city": "Anh Sơn",
    "admin": "Nghệ An",
    "lat": "18.932492",
    "lng": "105.076012"
  },
  {
    "city": "Thị Trấn Ngan Dừa",
    "admin": "Bạc Liêu",
    "lat": "9.567033",
    "lng": "105.450185"
  },
  {
    "city": "Văn Quan",
    "admin": "Lạng Sơn",
    "lat": "21.865156",
    "lng": "106.539253"
  },
  {
    "city": "Lạc Dương",
    "admin": "Lâm Đồng",
    "lat": "12.004052",
    "lng": "108.419051"
  },
  {
    "city": "Chí Thạnh",
    "admin": "Phú Yên",
    "lat": "13.308446",
    "lng": "109.215217"
  },
  {
    "city": "Đống Đa",
    "admin": "Hà Nội",
    "lat": "21.020087",
    "lng": "105.830967"
  },
  {
    "city": "Ba Đình",
    "admin": "Hà Nội",
    "lat": "21.034072",
    "lng": "105.814525"
  },
  {
    "city": "Tân Trụ",
    "admin": "Long An",
    "lat": "10.512708",
    "lng": "106.507623"
  },
  {
    "city": "Bến Tre",
    "admin": "Bến Tre",
    "lat": "10.241466",
    "lng": "106.375852"
  },
  {
    "city": "Thốt Nốt",
    "admin": "Cần Thơ",
    "lat": "10.272133",
    "lng": "105.533802"
  },
  {
    "city": "Cầu Kè",
    "admin": "Trà Vinh",
    "lat": "9.872403",
    "lng": "106.054974"
  },
  {
    "city": "Cầu Giát",
    "admin": "Nghệ An",
    "lat": "19.146003",
    "lng": "105.630889"
  },
  {
    "city": "Nàng Mau",
    "admin": "Hậu Giang",
    "lat": "9.751292",
    "lng": "105.534475"
  },
  {
    "city": "Tân Việt",
    "admin": "Cao Bằng",
    "lat": "22.864075",
    "lng": "105.459045"
  },
  {
    "city": "Pác Miầu",
    "admin": "Cao Bằng",
    "lat": "22.829681",
    "lng": "105.49334"
  },
  {
    "city": "Phú Thọ",
    "admin": "Phú Thọ",
    "lat": "21.399629",
    "lng": "105.222208"
  },
  {
    "city": "Mường Chiên",
    "admin": "Sơn La",
    "lat": "21.842399",
    "lng": "103.566077"
  },
  {
    "city": "Chợ Chu",
    "admin": "Thái Nguyên",
    "lat": "21.907235",
    "lng": "105.642194"
  },
  {
    "city": "Hậu Lộc",
    "admin": "Thanh Hóa",
    "lat": "19.914441",
    "lng": "105.886149"
  },
  {
    "city": "Yên Thành",
    "admin": "Nghệ An",
    "lat": "18.998557",
    "lng": "105.471158"
  },
  {
    "city": "Cam Lâm",
    "admin": "Khánh Hòa",
    "lat": "12.053979",
    "lng": "109.160038"
  },
  {
    "city": "Gia Lộc",
    "admin": "Hải Dương",
    "lat": "20.867828",
    "lng": "106.300001"
  },
  {
    "city": "Phú Lộc",
    "admin": "Sóc Trăng",
    "lat": "9.428382",
    "lng": "105.741112"
  },
  {
    "city": "Lộc Ninh",
    "admin": "Bình Phước",
    "lat": "11.844756",
    "lng": "106.590729"
  },
  {
    "city": "Gio Linh",
    "admin": "Quảng Trị",
    "lat": "16.924802",
    "lng": "107.084385"
  },
  {
    "city": "Điện Biên Đông",
    "admin": "Điện Biên",
    "lat": "21.296732",
    "lng": "103.220093"
  },
  {
    "city": "Tam Điệp",
    "admin": "Ninh Bình",
    "lat": "20.156348",
    "lng": "105.917367"
  },
  {
    "city": "Đức Phổ",
    "admin": "Quảng Ngãi",
    "lat": "14.813554",
    "lng": "108.959312"
  },
  {
    "city": "Đức Phong",
    "admin": "Bình Phước",
    "lat": "11.813462",
    "lng": "107.24433"
  },
  {
    "city": "Mộ Đức",
    "admin": "Quảng Ngãi",
    "lat": "14.95513",
    "lng": "108.885863"
  },
  {
    "city": "Nam Giang",
    "admin": "Nam Định",
    "lat": "20.333221",
    "lng": "106.17754"
  },
  {
    "city": "Đô Lương",
    "admin": "Nghệ An",
    "lat": "18.898524",
    "lng": "105.30797"
  },
  {
    "city": "Vũ Thư",
    "admin": "Thái Bình",
    "lat": "20.43671",
    "lng": "106.29116"
  },
  {
    "city": "Thị Trấn Yên Thế",
    "admin": "Yên Bái",
    "lat": "22.11075",
    "lng": "104.767475"
  },
  {
    "city": "Ea Drăng",
    "admin": "Đắk Lắk",
    "lat": "13.204497",
    "lng": "108.21029"
  },
  {
    "city": "Bình Minh",
    "admin": "Vĩnh Long",
    "lat": "10.068206",
    "lng": "105.822212"
  },
  {
    "city": "An Phú",
    "admin": "An Giang",
    "lat": "10.815913",
    "lng": "105.090382"
  },
  {
    "city": "An Lão",
    "admin": "Bình Định",
    "lat": "14.612405",
    "lng": "108.889897"
  },
  {
    "city": "Đồng Lê",
    "admin": "Quảng Bình",
    "lat": "17.883889",
    "lng": "106.025362"
  },
  {
    "city": "Lũng Hồ",
    "admin": "Hà Giang",
    "lat": "22.984788",
    "lng": "105.239832"
  },
  {
    "city": "Thị Trấn Yên Minh",
    "admin": "Hà Giang",
    "lat": "23.117924",
    "lng": "105.141593"
  },
  {
    "city": "Thị Trấn Đất Đỏ",
    "admin": "Bà Rịa-Vũng Tàu",
    "lat": "10.490934",
    "lng": "107.270145"
  },
  {
    "city": "Ea T’ling",
    "admin": "Đắk Nông",
    "lat": "12.589036",
    "lng": "107.895784"
  },
  {
    "city": "Bút Sơn",
    "admin": "Thanh Hóa",
    "lat": "19.857967",
    "lng": "105.854818"
  },
  {
    "city": "Bích Động",
    "admin": "Bắc Giang",
    "lat": "21.274211",
    "lng": "106.100689"
  },
  {
    "city": "Phù Cát",
    "admin": "Bình Định",
    "lat": "14.003158",
    "lng": "109.058039"
  },
  {
    "city": "Phùng",
    "admin": "Hà Nội",
    "lat": "21.089025",
    "lng": "105.659013"
  },
  {
    "city": "Tam Bình",
    "admin": "Vĩnh Long",
    "lat": "10.048114",
    "lng": "106.000171"
  },
  {
    "city": "Tĩnh Gia",
    "admin": "Thanh Hóa",
    "lat": "19.44645",
    "lng": "105.778613"
  },
  {
    "city": "Phước Vĩnh",
    "admin": "Bình Dương",
    "lat": "11.294661",
    "lng": "106.795328"
  },
  {
    "city": "Long Thành",
    "admin": "Đồng Nai",
    "lat": "10.789087",
    "lng": "106.950295"
  },
  {
    "city": "Đầm Dơi",
    "admin": "Cà Mau",
    "lat": "8.992138",
    "lng": "105.196023"
  },
  {
    "city": "Thành Phố Hải Dương",
    "admin": "Hải Dương",
    "lat": "20.940994",
    "lng": "106.333016"
  },
  {
    "city": "Thị Trấn Na Hang",
    "admin": "Tuyên Quang",
    "lat": "22.349175",
    "lng": "105.382414"
  },
  {
    "city": "Đăk Đoa",
    "admin": "Gia Lai",
    "lat": "13.995006",
    "lng": "108.112065"
  },
  {
    "city": "Bắc Sơn",
    "admin": "Lạng Sơn",
    "lat": "21.899988",
    "lng": "106.32077"
  },
  {
    "city": "Ia Pa",
    "admin": "Gia Lai",
    "lat": "13.533615",
    "lng": "108.455285"
  },
  {
    "city": "Châu Thành",
    "admin": "Tây Ninh",
    "lat": "11.311674",
    "lng": "106.029503"
  },
  {
    "city": "Me",
    "admin": "Ninh Bình",
    "lat": "20.346972",
    "lng": "105.836149"
  },
  {
    "city": "Trới",
    "admin": "Quảng Ninh",
    "lat": "21.031409",
    "lng": "106.991013"
  },
  {
    "city": "Cái Nhum",
    "admin": "Vĩnh Long",
    "lat": "10.174121",
    "lng": "106.110506"
  },
  {
    "city": "Pleiku",
    "admin": "Gia Lai",
    "lat": "13.983333",
    "lng": "108.0"
  },
  {
    "city": "Sơn Tây",
    "admin": "Hà Nội",
    "lat": "21.140534",
    "lng": "105.506856"
  },
  {
    "city": "Yên Định",
    "admin": "Nam Định",
    "lat": "20.201454",
    "lng": "106.295785"
  },
  {
    "city": "Lắk",
    "admin": "Đắk Lắk",
    "lat": "12.410865",
    "lng": "108.176816"
  },
  {
    "city": "A Lưới",
    "admin": "Thừa Thiên-Huế",
    "lat": "16.272282",
    "lng": "107.233849"
  },
  {
    "city": "Thạnh Mỹ",
    "admin": "Quảng Nam",
    "lat": "15.748889",
    "lng": "107.836776"
  },
  {
    "city": "Chư Ty",
    "admin": "Gia Lai",
    "lat": "13.805068",
    "lng": "107.6961"
  },
  {
    "city": "Thanh Lưu",
    "admin": "Hà Nam",
    "lat": "20.473979",
    "lng": "105.952682"
  },
  {
    "city": "Ô Môn",
    "admin": "Cần Thơ",
    "lat": "10.10974",
    "lng": "105.623181"
  },
  {
    "city": "Thị Trấn Quảng Uyên",
    "admin": "Cao Bằng",
    "lat": "22.694988",
    "lng": "106.44235"
  },
  {
    "city": "Phụng Hiệp",
    "admin": "Hậu Giang",
    "lat": "9.779723",
    "lng": "105.733801"
  },
  {
    "city": "Cù Lao Dung",
    "admin": "Sóc Trăng",
    "lat": "9.673137",
    "lng": "106.148744"
  },
  {
    "city": "Dương Minh Châu",
    "admin": "Tây Ninh",
    "lat": "11.38414",
    "lng": "106.230776"
  },
  {
    "city": "Giồng Trôm",
    "admin": "Bến Tre",
    "lat": "10.150212",
    "lng": "106.506057"
  },
  {
    "city": "Nam Sách",
    "admin": "Hải Dương",
    "lat": "20.992053",
    "lng": "106.336128"
  },
  {
    "city": "Thanh Hóa",
    "admin": "Thanh Hóa",
    "lat": "19.8",
    "lng": "105.766667"
  },
  {
    "city": "Đinh Văn",
    "admin": "Lâm Đồng",
    "lat": "11.786241",
    "lng": "108.242819"
  },
  {
    "city": "Quảng Hà",
    "admin": "Quảng Ninh",
    "lat": "21.4506",
    "lng": "107.755918"
  },
  {
    "city": "Minh Long",
    "admin": "Quảng Ngãi",
    "lat": "14.93218",
    "lng": "108.703279"
  },
  {
    "city": "Thị Trấn Thất Khê",
    "admin": "Lạng Sơn",
    "lat": "22.255252",
    "lng": "106.473593"
  },
  {
    "city": "Vĩnh Thạnh",
    "admin": "Bình Định",
    "lat": "14.108837",
    "lng": "108.78381"
  },
  {
    "city": "Trà Bồng",
    "admin": "Quảng Ngãi",
    "lat": "15.255691",
    "lng": "108.517225"
  },
  {
    "city": "Cầu Gồ",
    "admin": "Bắc Giang",
    "lat": "21.476786",
    "lng": "106.126531"
  },
  {
    "city": "Thành Phố Sơn La",
    "admin": "Sơn La",
    "lat": "21.325598",
    "lng": "103.91882"
  },
  {
    "city": "Thị Trấn Na Sầm",
    "admin": "Lạng Sơn",
    "lat": "22.056392",
    "lng": "106.6151"
  },
  {
    "city": "Hương Sơn",
    "admin": "Thái Nguyên",
    "lat": "21.460142",
    "lng": "105.978142"
  },
  {
    "city": "Quan Sơn",
    "admin": "Thanh Hóa",
    "lat": "20.259092",
    "lng": "104.945212"
  },
  {
    "city": "An Dương",
    "admin": "Hải Phòng",
    "lat": "20.863816",
    "lng": "106.613301"
  },
  {
    "city": "Đông Thành",
    "admin": "Long An",
    "lat": "10.892205",
    "lng": "106.306136"
  },
  {
    "city": "Gia Bình",
    "admin": "Bắc Ninh",
    "lat": "21.059381",
    "lng": "106.174684"
  },
  {
    "city": "Ba Đồn",
    "admin": "Quảng Bình",
    "lat": "17.753527",
    "lng": "106.423547"
  },
  {
    "city": "Biên Hòa",
    "admin": "Đồng Nai",
    "lat": "10.944689",
    "lng": "106.824317"
  },
  {
    "city": "Hưng Yên",
    "admin": "Hưng Yên",
    "lat": "20.646366",
    "lng": "106.05112"
  },
  {
    "city": "Thủ Thừa",
    "admin": "Long An",
    "lat": "10.602317",
    "lng": "106.402073"
  },
  {
    "city": "Hồ Xá",
    "admin": "Quảng Trị",
    "lat": "17.068362",
    "lng": "107.005198"
  },
  {
    "city": "Thị Trấn Bảo Lạc",
    "admin": "Cao Bằng",
    "lat": "22.949239",
    "lng": "105.68046"
  },
  {
    "city": "Kiên Lương",
    "admin": "Kiến Giang",
    "lat": "10.286239",
    "lng": "104.646159"
  },
  {
    "city": "Quốc Oai",
    "admin": "Hà Nội",
    "lat": "20.990187",
    "lng": "105.640876"
  },
  {
    "city": "Thị Trấn Xuân Hoà",
    "admin": "Cao Bằng",
    "lat": "22.902427",
    "lng": "106.077366"
  },
  {
    "city": "Thiên Tồn",
    "admin": "Ninh Bình",
    "lat": "20.299047",
    "lng": "105.951976"
  },
  {
    "city": "Liên Hương",
    "admin": "Bình Thuận",
    "lat": "11.227614",
    "lng": "108.723664"
  },
  {
    "city": "Hương Trà",
    "admin": "Thừa Thiên-Huế",
    "lat": "16.525395",
    "lng": "107.475501"
  },
  {
    "city": "Hòa Mạc",
    "admin": "Hà Nam",
    "lat": "20.641726",
    "lng": "105.989001"
  },
  {
    "city": "Tri Tôn",
    "admin": "An Giang",
    "lat": "10.420202",
    "lng": "105.000733"
  },
  {
    "city": "Nghi Xuân",
    "admin": "Hà Tĩnh",
    "lat": "18.662059",
    "lng": "105.755745"
  },
  {
    "city": "Thứ Mười Một",
    "admin": "Kiến Giang",
    "lat": "9.611445",
    "lng": "104.946502"
  },
  {
    "city": "Chợ Mới",
    "admin": "An Giang",
    "lat": "10.551234",
    "lng": "105.404406"
  },
  {
    "city": "Chợ Lách",
    "admin": "Bến Tre",
    "lat": "10.260322",
    "lng": "106.118918"
  },
  {
    "city": "Bắc Ninh",
    "admin": "Bắc Ninh",
    "lat": "21.18608",
    "lng": "106.076315"
  },
  {
    "city": "Kon Dơng",
    "admin": "Gia Lai",
    "lat": "14.038863",
    "lng": "108.250113"
  },
  {
    "city": "Tân Phú",
    "admin": "Đồng Nai",
    "lat": "11.272209",
    "lng": "107.436547"
  },
  {
    "city": "Quận Mười Một",
    "admin": "Hồ Chí Minh",
    "lat": "10.763829",
    "lng": "106.643552"
  },
  {
    "city": "Quận Mười",
    "admin": "Hồ Chí Minh",
    "lat": "10.768234",
    "lng": "106.666324"
  },
  {
    "city": "Quận Tân Phú",
    "admin": "Hồ Chí Minh",
    "lat": "10.783786",
    "lng": "106.63704"
  },
  {
    "city": "Quận Ba",
    "admin": "Hồ Chí Minh",
    "lat": "10.774943",
    "lng": "106.68628"
  },
  {
    "city": "Quận Bình Thạnh",
    "admin": "Hồ Chí Minh",
    "lat": "10.803251",
    "lng": "106.696665"
  },
  {
    "city": "Kim Tân",
    "admin": "Thanh Hóa",
    "lat": "20.130533",
    "lng": "105.674535"
  },
  {
    "city": "Ngô Đồng",
    "admin": "Nam Định",
    "lat": "20.282961",
    "lng": "106.443473"
  },
  {
    "city": "Mù Cang Chải",
    "admin": "Yên Bái",
    "lat": "21.851254",
    "lng": "104.08954"
  },
  {
    "city": "Thị Trấn Nguyên Bình",
    "admin": "Cao Bằng",
    "lat": "22.649952",
    "lng": "105.959845"
  },
  {
    "city": "Tánh Linh",
    "admin": "Bình Thuận",
    "lat": "11.084206",
    "lng": "107.68095"
  },
  {
    "city": "Đắk Mâm",
    "admin": "Đắk Nông",
    "lat": "12.457886",
    "lng": "107.862461"
  },
  {
    "city": "Thành Phố Cao Bằng",
    "admin": "Cao Bằng",
    "lat": "22.665678",
    "lng": "106.257858"
  },
  {
    "city": "Vĩnh Trụ",
    "admin": "Hà Nam",
    "lat": "20.560195",
    "lng": "106.028121"
  },
  {
    "city": "Phước Dân",
    "admin": "Ninh Thuận",
    "lat": "11.526956",
    "lng": "108.929958"
  },
  {
    "city": "Tứ Kỳ",
    "admin": "Hải Dương",
    "lat": "20.819141",
    "lng": "106.406614"
  },
  {
    "city": "Tân Châu",
    "admin": "Tây Ninh",
    "lat": "11.552017",
    "lng": "106.172454"
  },
  {
    "city": "Mường Xén",
    "admin": "Nghệ An",
    "lat": "19.397954",
    "lng": "104.152392"
  },
  {
    "city": "Sông Thao",
    "admin": "Phú Thọ",
    "lat": "21.421304",
    "lng": "105.133744"
  },
  {
    "city": "Phú Vang",
    "admin": "Thừa Thiên-Huế",
    "lat": "16.439108",
    "lng": "107.714376"
  },
  {
    "city": "Hải Lăng",
    "admin": "Quảng Trị",
    "lat": "16.693474",
    "lng": "107.251245"
  },
  {
    "city": "Núi Sập",
    "admin": "An Giang",
    "lat": "10.264779",
    "lng": "105.266758"
  },
  {
    "city": "Mỏ Cày",
    "admin": "Bến Tre",
    "lat": "10.133124",
    "lng": "106.335189"
  },
  {
    "city": "Trâu Quỳ",
    "admin": "Hà Nội",
    "lat": "21.019507",
    "lng": "105.936935"
  },
  {
    "city": "Đình Lập",
    "admin": "Lạng Sơn",
    "lat": "21.54633",
    "lng": "107.098125"
  },
  {
    "city": "Tam Kỳ",
    "admin": "Quảng Nam",
    "lat": "15.573642",
    "lng": "108.474026"
  },
  {
    "city": "Thị Trấn Thuận Châu",
    "admin": "Sơn La",
    "lat": "21.43858",
    "lng": "103.689932"
  },
  {
    "city": "Thị Trấn Thông Nông",
    "admin": "Cao Bằng",
    "lat": "22.784099",
    "lng": "105.983201"
  },
  {
    "city": "Krông Năng",
    "admin": "Đắk Lắk",
    "lat": "12.951698",
    "lng": "108.34425"
  },
  {
    "city": "Thanh Ba",
    "admin": "Phú Thọ",
    "lat": "21.498805",
    "lng": "105.141038"
  },
  {
    "city": "Yên Châu",
    "admin": "Sơn La",
    "lat": "21.045842",
    "lng": "104.301006"
  },
  {
    "city": "Vinh",
    "admin": "Nghệ An",
    "lat": "18.673365",
    "lng": "105.692317"
  },
  {
    "city": "Sơn Tịnh",
    "admin": "Quảng Ngãi",
    "lat": "15.158558",
    "lng": "108.795816"
  },
  {
    "city": "Rạch Giá",
    "admin": "Kiến Giang",
    "lat": "10.012447",
    "lng": "105.080913"
  },
  {
    "city": "Thanh Sơn",
    "admin": "Phú Thọ",
    "lat": "21.198669",
    "lng": "105.178921"
  },
  {
    "city": "Thuận Nam",
    "admin": "Bình Thuận",
    "lat": "10.850039",
    "lng": "107.87864"
  },
  {
    "city": "Vĩnh Lộc",
    "admin": "Thanh Hóa",
    "lat": "20.054385",
    "lng": "105.615675"
  },
  {
    "city": "Vạn Giã",
    "admin": "Khánh Hòa",
    "lat": "12.692028",
    "lng": "109.220688"
  },
  {
    "city": "Bến Lức",
    "admin": "Long An",
    "lat": "10.636399",
    "lng": "106.491036"
  },
  {
    "city": "Châu Thành",
    "admin": "Sóc Trăng",
    "lat": "9.700703",
    "lng": "105.902023"
  },
  {
    "city": "Nhơn Trạch",
    "admin": "Đồng Nai",
    "lat": "10.722936",
    "lng": "106.883411"
  },
  {
    "city": "Thới Lai",
    "admin": "Cần Thơ",
    "lat": "10.065217",
    "lng": "105.558626"
  },
  {
    "city": "Buôn Trấp",
    "admin": "Đắk Lắk",
    "lat": "12.484783",
    "lng": "108.02982"
  },
  {
    "city": "M’Đrăk",
    "admin": "Đắk Lắk",
    "lat": "12.74624",
    "lng": "108.742805"
  },
  {
    "city": "Thanh Khê",
    "admin": "Đà Nẵng",
    "lat": "16.070599",
    "lng": "108.191021"
  },
  {
    "city": "Xuân Trường",
    "admin": "Nam Định",
    "lat": "20.292273",
    "lng": "106.332745"
  },
  {
    "city": "Cần Giuộc",
    "admin": "Long An",
    "lat": "10.608571",
    "lng": "106.671345"
  },
  {
    "city": "Cần Đước",
    "admin": "Long An",
    "lat": "10.509659",
    "lng": "106.603078"
  },
  {
    "city": "Krông Klang",
    "admin": "Quảng Trị",
    "lat": "16.689058",
    "lng": "106.887397"
  },
  {
    "city": "Sóc Sơn",
    "admin": "Hà Nội",
    "lat": "21.25782",
    "lng": "105.848943"
  },
  {
    "city": "Liên Quan",
    "admin": "Hà Nội",
    "lat": "21.057229",
    "lng": "105.579191"
  },
  {
    "city": "Phong Thổ",
    "admin": "Lai Châu",
    "lat": "22.544328",
    "lng": "103.297765"
  },
  {
    "city": "Bát Xát",
    "admin": "Lào Cai",
    "lat": "22.543109",
    "lng": "103.889887"
  },
  {
    "city": "Dĩ An",
    "admin": "Bình Dương",
    "lat": "10.906818",
    "lng": "106.769396"
  },
  {
    "city": "Vĩnh Hưng",
    "admin": "Long An",
    "lat": "10.890667",
    "lng": "105.78495"
  },
  {
    "city": "Bình Đại",
    "admin": "Bến Tre",
    "lat": "10.189644",
    "lng": "106.691494"
  },
  {
    "city": "Vôi",
    "admin": "Bắc Giang",
    "lat": "21.355217",
    "lng": "106.261502"
  },
  {
    "city": "Tân Túc",
    "admin": "Hồ Chí Minh",
    "lat": "10.695412",
    "lng": "106.591281"
  },
  {
    "city": "Tân Phú",
    "admin": "Bình Phước",
    "lat": "11.451193",
    "lng": "106.868112"
  },
  {
    "city": "Cổ Phúc",
    "admin": "Yên Bái",
    "lat": "21.75585",
    "lng": "104.827684"
  },
  {
    "city": "Tầm Vu",
    "admin": "Long An",
    "lat": "10.441137",
    "lng": "106.467927"
  },
  {
    "city": "Phúc Yên",
    "admin": "Vĩnh Phúc",
    "lat": "21.236954",
    "lng": "105.704831"
  },
  {
    "city": "Cổ Lễ",
    "admin": "Nam Định",
    "lat": "20.32336",
    "lng": "106.265838"
  },
  {
    "city": "Thị Trấn Trạm Tấu",
    "admin": "Yên Bái",
    "lat": "21.466594",
    "lng": "104.379657"
  },
  {
    "city": "Trà My",
    "admin": "Quảng Nam",
    "lat": "15.33965",
    "lng": "108.220654"
  },
  {
    "city": "Kim Sơn",
    "admin": "Nghệ An",
    "lat": "19.604094",
    "lng": "104.919033"
  },
  {
    "city": "Quán Hàu",
    "admin": "Quảng Bình",
    "lat": "17.404379",
    "lng": "106.640715"
  },
  {
    "city": "Cái Đôi Vàm",
    "admin": "Cà Mau",
    "lat": "8.857065",
    "lng": "104.811995"
  },
  {
    "city": "Móng Cái",
    "admin": "Quảng Ninh",
    "lat": "21.524706",
    "lng": "107.966195"
  },
  {
    "city": "Châu Thành",
    "admin": "Trà Vinh",
    "lat": "9.869888",
    "lng": "106.349394"
  },
  {
    "city": "Lâm",
    "admin": "Nam Định",
    "lat": "20.327734",
    "lng": "106.012083"
  },
  {
    "city": "Cam Lộ",
    "admin": "Quảng Trị",
    "lat": "16.807971",
    "lng": "106.994053"
  },
  {
    "city": "Vạn Hà",
    "admin": "Thanh Hóa",
    "lat": "19.886588",
    "lng": "105.67879"
  },
  {
    "city": "Trần Văn Thời",
    "admin": "Cà Mau",
    "lat": "9.077127",
    "lng": "104.979143"
  },
  {
    "city": "Hồ",
    "admin": "Bắc Ninh",
    "lat": "21.06308",
    "lng": "106.085704"
  },
  {
    "city": "Mỹ Xuyên",
    "admin": "Sóc Trăng",
    "lat": "9.560062",
    "lng": "105.989839"
  },
  {
    "city": "Khâm Đức",
    "admin": "Quảng Nam",
    "lat": "15.445076",
    "lng": "107.793367"
  },
  {
    "city": "Phúc Thọ",
    "admin": "Hà Nội",
    "lat": "21.103449",
    "lng": "105.545511"
  },
  {
    "city": "Thị Trấn Tà Lùng",
    "admin": "Cao Bằng",
    "lat": "22.497904",
    "lng": "106.566902"
  },
  {
    "city": "Đắk Hà",
    "admin": "Kon Tum",
    "lat": "14.513453",
    "lng": "107.921022"
  },
  {
    "city": "Thị Trấn Mường Khương",
    "admin": "Lào Cai",
    "lat": "22.761406",
    "lng": "104.121556"
  },
  {
    "city": "Quế Sơn",
    "admin": "Quảng Nam",
    "lat": "15.673556",
    "lng": "108.220096"
  },
  {
    "city": "Trảng Bàng",
    "admin": "Tây Ninh",
    "lat": "11.029873",
    "lng": "106.357505"
  },
  {
    "city": "Di Linh",
    "admin": "Lâm Đồng",
    "lat": "11.581531",
    "lng": "108.076415"
  },
  {
    "city": "Khánh Hải",
    "admin": "Ninh Thuận",
    "lat": "11.591048",
    "lng": "109.040519"
  },
  {
    "city": "Tân Biên",
    "admin": "Tây Ninh",
    "lat": "11.544406",
    "lng": "106.011608"
  },
  {
    "city": "Yên Lạc",
    "admin": "Vĩnh Phúc",
    "lat": "21.236463",
    "lng": "105.572968"
  },
  {
    "city": "Yến Lạc",
    "admin": "Bắc Kạn",
    "lat": "22.23693",
    "lng": "106.181489"
  },
  {
    "city": "Vĩnh Long",
    "admin": "Vĩnh Long",
    "lat": "10.253692",
    "lng": "105.972201"
  },
  {
    "city": "Tân Hiệp",
    "admin": "Kiến Giang",
    "lat": "10.117091",
    "lng": "105.28578"
  },
  {
    "city": "Tân Hiệp",
    "admin": "Tiền Giang",
    "lat": "10.44905",
    "lng": "106.343858"
  },
  {
    "city": "Bến Cầu",
    "admin": "Tây Ninh",
    "lat": "11.110506",
    "lng": "106.179235"
  },
  {
    "city": "Thứa",
    "admin": "Bắc Ninh",
    "lat": "21.019373",
    "lng": "106.200443"
  },
  {
    "city": "Sốp Cộp",
    "admin": "Sơn La",
    "lat": "20.938815",
    "lng": "103.597126"
  },
  {
    "city": "An Nhơn",
    "admin": "Bình Định",
    "lat": "13.885787",
    "lng": "109.108229"
  },
  {
    "city": "Yên Thịnh",
    "admin": "Ninh Bình",
    "lat": "20.162451",
    "lng": "106.006974"
  },
  {
    "city": "Cam Ranh",
    "admin": "Khánh Hòa",
    "lat": "11.927318",
    "lng": "109.160821"
  },
  {
    "city": "Bù Đốp",
    "admin": "Bình Phước",
    "lat": "11.954861",
    "lng": "106.800177"
  },
  {
    "city": "Huyện Chiêm Hóa",
    "admin": "Tuyên Quang",
    "lat": "22.144131",
    "lng": "105.272775"
  },
  {
    "city": "Duyên Hải",
    "admin": "Trà Vinh",
    "lat": "9.63497",
    "lng": "106.492367"
  },
  {
    "city": "Sơn Dương",
    "admin": "Tuyên Quang",
    "lat": "21.696756",
    "lng": "105.399012"
  },
  {
    "city": "Sơn Hà",
    "admin": "Quảng Ngãi",
    "lat": "15.041933",
    "lng": "108.469734"
  },
  {
    "city": "Tân Sơn",
    "admin": "Ninh Thuận",
    "lat": "11.775213",
    "lng": "108.784797"
  },
  {
    "city": "Châu Thành",
    "admin": "Bến Tre",
    "lat": "10.301218",
    "lng": "106.357012"
  },
  {
    "city": "Ba Tơ",
    "admin": "Quảng Ngãi",
    "lat": "14.763595",
    "lng": "108.732226"
  },
  {
    "city": "Thị Trấn Mường Tè",
    "admin": "Lai Châu",
    "lat": "22.380671",
    "lng": "102.820107"
  },
  {
    "city": "Thị Trấn Phước Bửu",
    "admin": "Bà Rịa-Vũng Tàu",
    "lat": "10.53472",
    "lng": "107.40202"
  },
  {
    "city": "Chũ",
    "admin": "Bắc Giang",
    "lat": "21.373793",
    "lng": "106.566489"
  },
  {
    "city": "Tân Hưng",
    "admin": "Long An",
    "lat": "10.83476",
    "lng": "105.661354"
  },
  {
    "city": "Phước An",
    "admin": "Đắk Lắk",
    "lat": "12.712981",
    "lng": "108.301485"
  },
  {
    "city": "Thành Phố Hạ Long",
    "admin": "Quảng Ninh",
    "lat": "20.950452",
    "lng": "107.073361"
  },
  {
    "city": "Chư Prông",
    "admin": "Gia Lai",
    "lat": "13.756836",
    "lng": "107.886237"
  },
  {
    "city": "Vĩnh Châu",
    "admin": "Sóc Trăng",
    "lat": "9.32439",
    "lng": "105.980065"
  },
  {
    "city": "Cát Bà",
    "admin": "Hải Phòng",
    "lat": "20.727786",
    "lng": "107.048186"
  },
  {
    "city": "Vũ Quang",
    "admin": "Hà Tĩnh",
    "lat": "18.38385",
    "lng": "105.505904"
  },
  {
    "city": "Phú Lộc",
    "admin": "Thừa Thiên-Huế",
    "lat": "16.280351",
    "lng": "107.858984"
  },
  {
    "city": "Lấp Vò",
    "admin": "Đồng Tháp",
    "lat": "10.361613",
    "lng": "105.51924"
  },
  {
    "city": "Đồng Xuân",
    "admin": "Phú Yên",
    "lat": "13.377324",
    "lng": "109.108068"
  },
  {
    "city": "Ea Súp",
    "admin": "Đắk Lắk",
    "lat": "13.066164",
    "lng": "107.885463"
  },
  {
    "city": "Cô Tô",
    "admin": "Quảng Ninh",
    "lat": "20.972681",
    "lng": "107.765779"
  },
  {
    "city": "Thới Bình",
    "admin": "Cà Mau",
    "lat": "9.355842",
    "lng": "105.099292"
  },
  {
    "city": "Ma Đa Gui",
    "admin": "Lâm Đồng",
    "lat": "11.387022",
    "lng": "107.535081"
  },
  {
    "city": "Ái Tử",
    "admin": "Quảng Trị",
    "lat": "16.768857",
    "lng": "107.165043"
  },
  {
    "city": "Phủ Thông",
    "admin": "Bắc Kạn",
    "lat": "22.273137",
    "lng": "105.879434"
  },
  {
    "city": "Quỳnh Côi",
    "admin": "Thái Bình",
    "lat": "20.661918",
    "lng": "106.327445"
  },
  {
    "city": "Cần Giờ",
    "admin": "Hồ Chí Minh",
    "lat": "10.411149",
    "lng": "106.954737"
  },
  {
    "city": "Hát Lót",
    "admin": "Sơn La",
    "lat": "21.197329",
    "lng": "104.105953"
  },
  {
    "city": "Năm Căn",
    "admin": "Cà Mau",
    "lat": "8.758988",
    "lng": "104.992851"
  },
  {
    "city": "Trà Cú",
    "admin": "Trà Vinh",
    "lat": "9.697741",
    "lng": "106.258339"
  },
  {
    "city": "Hưng Hà",
    "admin": "Thái Bình",
    "lat": "20.5904",
    "lng": "106.22445"
  },
  {
    "city": "Mường Khến",
    "admin": "Hòa Bình",
    "lat": "20.614414",
    "lng": "105.279477"
  },
  {
    "city": "Sơn Trà",
    "admin": "Đà Nẵng",
    "lat": "16.060681",
    "lng": "108.232563"
  },
  {
    "city": "Bẩn Yên Nhân",
    "admin": "Hưng Yên",
    "lat": "20.936527",
    "lng": "106.057105"
  },
  {
    "city": "Vĩnh Yên",
    "admin": "Vĩnh Phúc",
    "lat": "21.308909",
    "lng": "105.604894"
  },
  {
    "city": "Hưng Hóa",
    "admin": "Phú Thọ",
    "lat": "21.254873",
    "lng": "105.295304"
  },
  {
    "city": "Võ Xu",
    "admin": "Bình Thuận",
    "lat": "11.186906",
    "lng": "107.560251"
  },
  {
    "city": "Vụ Bản",
    "admin": "Hòa Bình",
    "lat": "20.464203",
    "lng": "105.443476"
  },
  {
    "city": "Văn Giang",
    "admin": "Hưng Yên",
    "lat": "20.94301",
    "lng": "105.931194"
  },
  {
    "city": "Plei Kần",
    "admin": "Kon Tum",
    "lat": "14.704947",
    "lng": "107.686201"
  },
  {
    "city": "Chư Sê",
    "admin": "Gia Lai",
    "lat": "13.69153",
    "lng": "108.080232"
  },
  {
    "city": "Phú Thái",
    "admin": "Hải Dương",
    "lat": "20.962781",
    "lng": "106.509495"
  },
  {
    "city": "An Châu",
    "admin": "An Giang",
    "lat": "10.445591",
    "lng": "105.386218"
  },
  {
    "city": "Quảng Xương",
    "admin": "Thanh Hóa",
    "lat": "19.729475",
    "lng": "105.782731"
  },
  {
    "city": "Nông Cống",
    "admin": "Thanh Hóa",
    "lat": "19.624028",
    "lng": "105.649412"
  },
  {
    "city": "Quế",
    "admin": "Hà Nam",
    "lat": "20.580637",
    "lng": "105.872664"
  },
  {
    "city": "Thạch Hà",
    "admin": "Hà Tĩnh",
    "lat": "18.367877",
    "lng": "105.861219"
  },
  {
    "city": "Mỹ Tho",
    "admin": "Tiền Giang",
    "lat": "10.360045",
    "lng": "106.35996"
  },
  {
    "city": "Mỹ Thọ",
    "admin": "Đồng Tháp",
    "lat": "10.442667",
    "lng": "105.695075"
  },
  {
    "city": "Quỳ Hợp",
    "admin": "Nghệ An",
    "lat": "19.325456",
    "lng": "105.182509"
  },
  {
    "city": "Bắc Hà",
    "admin": "Lào Cai",
    "lat": "22.539107",
    "lng": "104.293053"
  },
  {
    "city": "Vĩnh Thạnh",
    "admin": "Cần Thơ",
    "lat": "10.22263",
    "lng": "105.398412"
  },
  {
    "city": "Cờ Đỏ",
    "admin": "Cần Thơ",
    "lat": "10.093769",
    "lng": "105.429161"
  },
  {
    "city": "Đức Thọ",
    "admin": "Hà Tĩnh",
    "lat": "18.539568",
    "lng": "105.583024"
  },
  {
    "city": "Chùa Hang",
    "admin": "Thái Nguyên",
    "lat": "21.623845",
    "lng": "105.841682"
  },
  {
    "city": "Tuy Phước",
    "admin": "Bình Định",
    "lat": "13.827381",
    "lng": "109.166508"
  },
  {
    "city": "Khe Tre",
    "admin": "Thừa Thiên-Huế",
    "lat": "16.169097",
    "lng": "107.717933"
  },
  {
    "city": "Lai Cách",
    "admin": "Hải Dương",
    "lat": "20.932525",
    "lng": "106.247556"
  },
  {
    "city": "Đắk Rve",
    "admin": "Kon Tum",
    "lat": "14.507174",
    "lng": "108.247299"
  },
  {
    "city": "Ít Ong",
    "admin": "Sơn La",
    "lat": "21.517501",
    "lng": "104.027013"
  },
  {
    "city": "Diên Khánh",
    "admin": "Khánh Hòa",
    "lat": "12.254904",
    "lng": "109.093316"
  },
  {
    "city": "Côn Đảo",
    "admin": "Bà Rịa-Vũng Tàu",
    "lat": "8.682279",
    "lng": "106.607283"
  },
  {
    "city": "Đồng Hới",
    "admin": "Quảng Bình",
    "lat": "17.468848",
    "lng": "106.622264"
  },
  {
    "city": "Thủ Đức",
    "admin": "Hồ Chí Minh",
    "lat": "10.848627",
    "lng": "106.772089"
  },
  {
    "city": "Thị Trấn Phước Long",
    "admin": "Bạc Liêu",
    "lat": "9.437527",
    "lng": "105.462166"
  },
  {
    "city": "Trần Cao",
    "admin": "Hưng Yên",
    "lat": "20.729521",
    "lng": "106.179706"
  },
  {
    "city": "Kông Chro",
    "admin": "Gia Lai",
    "lat": "13.77532",
    "lng": "108.525576"
  },
  {
    "city": "Gò Dầu",
    "admin": "Tây Ninh",
    "lat": "11.088502",
    "lng": "106.263456"
  },
  {
    "city": "Bảo Lộc",
    "admin": "Lâm Đồng",
    "lat": "11.54798",
    "lng": "107.807722"
  },
  {
    "city": "An Lão",
    "admin": "Hải Phòng",
    "lat": "20.822936",
    "lng": "106.555753"
  },
  {
    "city": "Cái Răng",
    "admin": "Cần Thơ",
    "lat": "10.000898",
    "lng": "105.750951"
  },
  {
    "city": "Vị Thanh",
    "admin": "Hậu Giang",
    "lat": "9.784492",
    "lng": "105.470123"
  },
  {
    "city": "Trảng Bom",
    "admin": "Đồng Nai",
    "lat": "10.953579",
    "lng": "107.005892"
  },
  {
    "city": "Tiền Hải",
    "admin": "Thái Bình",
    "lat": "20.405567",
    "lng": "106.503651"
  },
  {
    "city": "Cẩm Phả",
    "admin": "Quảng Ninh",
    "lat": "21.010036",
    "lng": "107.273451"
  },
  {
    "city": "Nghèn",
    "admin": "Hà Tĩnh",
    "lat": "18.45119",
    "lng": "105.77969"
  },
  {
    "city": "Quận Sáu",
    "admin": "Hồ Chí Minh",
    "lat": "10.746795",
    "lng": "106.649032"
  },
  {
    "city": "Quận Năm",
    "admin": "Hồ Chí Minh",
    "lat": "10.755665",
    "lng": "106.667451"
  },
  {
    "city": "Quận Một",
    "admin": "Hồ Chí Minh",
    "lat": "10.780687",
    "lng": "106.699444"
  },
  {
    "city": "Quận Phú Nhuận",
    "admin": "Hồ Chí Minh",
    "lat": "10.794752",
    "lng": "106.676297"
  },
  {
    "city": "Lai Vung",
    "admin": "Đồng Tháp",
    "lat": "10.28701",
    "lng": "105.661697"
  },
  {
    "city": "Phú Ninh",
    "admin": "Quảng Nam",
    "lat": "15.554728",
    "lng": "108.411423"
  },
  {
    "city": "Đắk Glei",
    "admin": "Kon Tum",
    "lat": "15.086417",
    "lng": "107.735768"
  },
  {
    "city": "Thành Phố Bà Rịa",
    "admin": "Bà Rịa-Vũng Tàu",
    "lat": "10.496292",
    "lng": "107.168409"
  },
  {
    "city": "Tây Đằng",
    "admin": "Hà Nội",
    "lat": "21.198087",
    "lng": "105.422172"
  },
  {
    "city": "Tây Hồ",
    "admin": "Hà Nội",
    "lat": "21.068947",
    "lng": "105.810526"
  },
  {
    "city": "Bình Sơn",
    "admin": "Quảng Ngãi",
    "lat": "15.297763",
    "lng": "108.761237"
  },
  {
    "city": "Ia Kha",
    "admin": "Gia Lai",
    "lat": "13.962419",
    "lng": "107.844844"
  },
  {
    "city": "Hữu Lũng",
    "admin": "Lạng Sơn",
    "lat": "21.505597",
    "lng": "106.344594"
  },
  {
    "city": "Hà Trung",
    "admin": "Thanh Hóa",
    "lat": "20.012846",
    "lng": "105.853223"
  },
  {
    "city": "Bo",
    "admin": "Hòa Bình",
    "lat": "20.672638",
    "lng": "105.536246"
  },
  {
    "city": "Đại Lộc",
    "admin": "Quảng Nam",
    "lat": "15.882144",
    "lng": "108.120918"
  },
  {
    "city": "Một Ngàn",
    "admin": "Hậu Giang",
    "lat": "9.924023",
    "lng": "105.62964"
  },
  {
    "city": "Thị Trấn Việt Quang",
    "admin": "Hà Giang",
    "lat": "22.415088",
    "lng": "104.806816"
  },
  {
    "city": "Bác Ái",
    "admin": "Ninh Thuận",
    "lat": "11.841038",
    "lng": "108.903158"
  },
  {
    "city": "Thị Trấn Thanh Nhật",
    "admin": "Cao Bằng",
    "lat": "22.687495",
    "lng": "106.670044"
  },
  {
    "city": "Ngã Bảy",
    "admin": "Hậu Giang",
    "lat": "9.813714",
    "lng": "105.820956"
  },
  {
    "city": "Thống Nhất",
    "admin": "Đồng Nai",
    "lat": "10.950546",
    "lng": "107.14571"
  },
  {
    "city": "Đồng Xoài",
    "admin": "Bình Phước",
    "lat": "11.534946",
    "lng": "106.88324"
  },
  {
    "city": "Kim Bài",
    "admin": "Hà Nội",
    "lat": "20.852649",
    "lng": "105.769629"
  },
  {
    "city": "Đồng Mỏ",
    "admin": "Lạng Sơn",
    "lat": "21.657006",
    "lng": "106.578315"
  },
  {
    "city": "Sịa",
    "admin": "Thừa Thiên-Huế",
    "lat": "16.574519",
    "lng": "107.510663"
  },
  {
    "city": "Thường Xuân",
    "admin": "Thanh Hóa",
    "lat": "19.902945",
    "lng": "105.347233"
  },
  {
    "city": "Hiệp Đức",
    "admin": "Quảng Nam",
    "lat": "15.58224",
    "lng": "108.114223"
  },
  {
    "city": "Lái Thiêu",
    "admin": "Bình Dương",
    "lat": "10.905117",
    "lng": "106.699487"
  },
  {
    "city": "Tam Đường",
    "admin": "Lai Châu",
    "lat": "22.318124",
    "lng": "103.626189"
  },
  {
    "city": "Đắk Tô",
    "admin": "Kon Tum",
    "lat": "14.660919",
    "lng": "107.838901"
  },
  {
    "city": "Mê Linh",
    "admin": "Hà Nội",
    "lat": "21.183103",
    "lng": "105.720411"
  },
  {
    "city": "Nam Đàn",
    "admin": "Nghệ An",
    "lat": "18.697993",
    "lng": "105.498807"
  },
  {
    "city": "Yên Mỹ",
    "admin": "Hưng Yên",
    "lat": "20.885573",
    "lng": "106.035599"
  },
  {
    "city": "Bắc Yên",
    "admin": "Sơn La",
    "lat": "21.246264",
    "lng": "104.432807"
  },
  {
    "city": "Hậu Nghĩa",
    "admin": "Long An",
    "lat": "10.894344",
    "lng": "106.396945"
  },
  {
    "city": "Bộc Bố",
    "admin": "Bắc Kạn",
    "lat": "22.612057",
    "lng": "105.667074"
  },
  {
    "city": "Thị Trấn Mèo Vạc",
    "admin": "Hà Giang",
    "lat": "23.164107",
    "lng": "105.40993"
  },
  {
    "city": "Thị Trấn Thuận Châu",
    "admin": "Sơn La",
    "lat": "21.43849",
    "lng": "103.689996"
  },
  {
    "city": "Kế Sách",
    "admin": "Sóc Trăng",
    "lat": "9.767432",
    "lng": "105.98574"
  },
  {
    "city": "Vân Canh",
    "admin": "Bình Định",
    "lat": "13.619451",
    "lng": "108.998054"
  },
  {
    "city": "Gia Nghĩa",
    "admin": "Đắk Nông",
    "lat": "12.00423",
    "lng": "107.690735"
  },
  {
    "city": "Diêm Điền",
    "admin": "Thái Bình",
    "lat": "20.558315",
    "lng": "106.568821"
  },
  {
    "city": "Huỳnh Hữu Nghĩa",
    "admin": "Sóc Trăng",
    "lat": "9.635372",
    "lng": "105.811654"
  },
  {
    "city": "Hà Đông",
    "admin": "Hà Nội",
    "lat": "20.97136",
    "lng": "105.778758"
  },
  {
    "city": "Lim",
    "admin": "Bắc Ninh",
    "lat": "21.143881",
    "lng": "106.020176"
  },
  {
    "city": "Hàng Trạm",
    "admin": "Hòa Bình",
    "lat": "20.394723",
    "lng": "105.622403"
  },
  {
    "city": "Liên Chiểu",
    "admin": "Đà Nẵng",
    "lat": "16.072723",
    "lng": "108.158147"
  },
  {
    "city": "Liễu Đề",
    "admin": "Nam Định",
    "lat": "20.220945",
    "lng": "106.187471"
  },
  {
    "city": "K Bang",
    "admin": "Gia Lai",
    "lat": "14.14453",
    "lng": "108.599078"
  },
  {
    "city": "Phú Quý",
    "admin": "Bình Thuận",
    "lat": "10.5166",
    "lng": "108.93292"
  },
  {
    "city": "Bình Gia",
    "admin": "Lạng Sơn",
    "lat": "21.960937",
    "lng": "106.364479"
  },
  {
    "city": "Giồng Riềng",
    "admin": "Kiến Giang",
    "lat": "9.909745",
    "lng": "105.31433"
  },
  {
    "city": "Nga Sơn",
    "admin": "Thanh Hóa",
    "lat": "20.007221",
    "lng": "105.970442"
  },
  {
    "city": "An Biên",
    "admin": "Kiến Giang",
    "lat": "9.815325",
    "lng": "105.063661"
  },
  {
    "city": "Yên Cát",
    "admin": "Thanh Hóa",
    "lat": "19.663267",
    "lng": "105.428537"
  },
  {
    "city": "Lập Thạch",
    "admin": "Vĩnh Phúc",
    "lat": "21.415394",
    "lng": "105.460813"
  },
  {
    "city": "Thành Phố Phủ Lý",
    "admin": "Hà Nam",
    "lat": "20.545314",
    "lng": "105.912214"
  },
  {
    "city": "Thanh Thủy",
    "admin": "Phú Thọ",
    "lat": "21.175482",
    "lng": "105.283882"
  },
  {
    "city": "Quán Hành",
    "admin": "Nghệ An",
    "lat": "18.779274",
    "lng": "105.645965"
  },
  {
    "city": "Chơn Thành",
    "admin": "Bình Phước",
    "lat": "11.428207",
    "lng": "106.635361"
  },
  {
    "city": "Chợ Mới",
    "admin": "Bắc Kạn",
    "lat": "21.883742",
    "lng": "105.772813"
  },
  {
    "city": "Như Quỳnh",
    "admin": "Hưng Yên",
    "lat": "20.981671",
    "lng": "105.984864"
  },
  {
    "city": "Phong Điền",
    "admin": "Cần Thơ",
    "lat": "9.997528",
    "lng": "105.667298"
  },
  {
    "city": "Phong Điền",
    "admin": "Thừa Thiên-Huế",
    "lat": "16.583211",
    "lng": "107.364379"
  },
  {
    "city": "Quận Bốn",
    "admin": "Hồ Chí Minh",
    "lat": "10.766838",
    "lng": "106.705742"
  },
  {
    "city": "Prao",
    "admin": "Quảng Nam",
    "lat": "15.924377",
    "lng": "107.648141"
  },
  {
    "city": "Hợp Hòa",
    "admin": "Vĩnh Phúc",
    "lat": "21.375251",
    "lng": "105.54256"
  },
  {
    "city": "Thị Trấn Khánh Yên",
    "admin": "Lào Cai",
    "lat": "22.089354",
    "lng": "104.251485"
  },
  {
    "city": "Long Phú",
    "admin": "Sóc Trăng",
    "lat": "9.610249",
    "lng": "106.11881"
  },
  {
    "city": "Lương Sơn",
    "admin": "Hòa Bình",
    "lat": "20.871477",
    "lng": "105.525676"
  },
  {
    "city": "Cao Thượng",
    "admin": "Bắc Giang",
    "lat": "21.387069",
    "lng": "106.129314"
  },
  {
    "city": "Cái Dầu",
    "admin": "An Giang",
    "lat": "10.574275",
    "lng": "105.240052"
  },
  {
    "city": "Mường Chà",
    "admin": "Điện Biên",
    "lat": "21.761718",
    "lng": "103.097826"
  },
  {
    "city": "Thị Trấn Phố Ràng",
    "admin": "Lào Cai",
    "lat": "22.234293",
    "lng": "104.476425"
  },
  {
    "city": "Đông Anh",
    "admin": "Hà Nội",
    "lat": "21.139616",
    "lng": "105.849263"
  },
  {
    "city": "Kon Tum",
    "admin": "Kon Tum",
    "lat": "14.354515",
    "lng": "108.007592"
  },
  {
    "city": "Đà Bắc",
    "admin": "Hòa Bình",
    "lat": "20.877145",
    "lng": "105.254168"
  },
  {
    "city": "Thanh Miện",
    "admin": "Hải Dương",
    "lat": "20.787139",
    "lng": "106.246233"
  },
  {
    "city": "Phú Xuyên",
    "admin": "Hà Nội",
    "lat": "20.745486",
    "lng": "105.913627"
  },
  {
    "city": "Núi Đèo",
    "admin": "Hải Phòng",
    "lat": "20.915695",
    "lng": "106.674396"
  },
  {
    "city": "Hưng Nguyên",
    "admin": "Nghệ An",
    "lat": "18.671649",
    "lng": "105.628817"
  },
  {
    "city": "Thạnh Phú",
    "admin": "Bến Tre",
    "lat": "9.948266",
    "lng": "106.516292"
  },
  {
    "city": "Tiên Phước",
    "admin": "Quảng Nam",
    "lat": "15.488195",
    "lng": "108.307364"
  },
  {
    "city": "Thị Trấn Vĩnh Tuy",
    "admin": "Hà Giang",
    "lat": "22.274411",
    "lng": "104.890906"
  },
  {
    "city": "Mỹ Lộc",
    "admin": "Nam Định",
    "lat": "20.441111",
    "lng": "106.102378"
  },
  {
    "city": "Nho Quan",
    "admin": "Ninh Bình",
    "lat": "20.322787",
    "lng": "105.751892"
  },
  {
    "city": "Yên Lập",
    "admin": "Phú Thọ",
    "lat": "21.34705",
    "lng": "105.057393"
  },
  {
    "city": "Thị Trấn Gành Hào",
    "admin": "Bạc Liêu",
    "lat": "9.031832",
    "lng": "105.421146"
  },
  {
    "city": "An Châu",
    "admin": "Bắc Giang",
    "lat": "21.334646",
    "lng": "106.849344"
  },
  {
    "city": "Nhà Bè",
    "admin": "Hồ Chí Minh",
    "lat": "10.696718",
    "lng": "106.740321"
  },
  {
    "city": "Cầu Giấy",
    "admin": "Hà Nội",
    "lat": "21.032277",
    "lng": "105.800734"
  },
  {
    "city": "Minh Lương",
    "admin": "Kiến Giang",
    "lat": "9.902484",
    "lng": "105.159502"
  },
  {
    "city": "Lang Chánh",
    "admin": "Thanh Hóa",
    "lat": "20.156107",
    "lng": "105.242233"
  },
  {
    "city": "Mai Châu",
    "admin": "Hòa Bình",
    "lat": "20.661455",
    "lng": "105.082366"
  },
  {
    "city": "Lương Bằng",
    "admin": "Hưng Yên",
    "lat": "20.740032",
    "lng": "106.059984"
  },
  {
    "city": "Si Ma Cai",
    "admin": "Lào Cai",
    "lat": "22.695096",
    "lng": "104.278573"
  },
  {
    "city": "Kiến Giang",
    "admin": "Quảng Bình",
    "lat": "17.223275",
    "lng": "106.790111"
  },
  {
    "city": "Tân Châu",
    "admin": "An Giang",
    "lat": "10.798321",
    "lng": "105.238875"
  },
  {
    "city": "Thạnh Mỹ",
    "admin": "Lâm Đồng",
    "lat": "11.761653",
    "lng": "108.494732"
  },
  {
    "city": "Thị Trấn Phú Mỹ",
    "admin": "Bà Rịa-Vũng Tàu",
    "lat": "10.603599",
    "lng": "107.053996"
  },
  {
    "city": "Thị Trấn Tam Sơn",
    "admin": "Hà Giang",
    "lat": "23.067402",
    "lng": "104.98926"
  },
  {
    "city": "Vĩnh Bình",
    "admin": "Tiền Giang",
    "lat": "10.34498",
    "lng": "106.580558"
  },
  {
    "city": "Mường Ảng",
    "admin": "Điện Biên",
    "lat": "21.519928",
    "lng": "103.222945"
  },
  {
    "city": "Sông Cầu",
    "admin": "Phú Yên",
    "lat": "13.455595",
    "lng": "109.223478"
  },
  {
    "city": "Đưc Trọng",
    "admin": "Lâm Đồng",
    "lat": "11.735592",
    "lng": "108.373303"
  },
  {
    "city": "Bến Sung",
    "admin": "Thanh Hóa",
    "lat": "19.631414",
    "lng": "105.578154"
  },
  {
    "city": "Đu",
    "admin": "Thái Nguyên",
    "lat": "21.738473",
    "lng": "105.703883"
  },
  {
    "city": "Thị Trấn Ngải Giao",
    "admin": "Bà Rịa-Vũng Tàu",
    "lat": "10.647101",
    "lng": "107.245766"
  },
  {
    "city": "Chợ Lầu",
    "admin": "Bình Thuận",
    "lat": "11.221584",
    "lng": "108.507071"
  },
  {
    "city": "Ma Lâm",
    "admin": "Bình Thuận",
    "lat": "11.072972",
    "lng": "108.129973"
  },
  {
    "city": "Mộc Châu",
    "admin": "Sơn La",
    "lat": "20.851994",
    "lng": "104.621773"
  },
  {
    "city": "Thanh Hà",
    "admin": "Hải Dương",
    "lat": "20.898162",
    "lng": "106.426124"
  },
  {
    "city": "Quán Lào",
    "admin": "Thanh Hóa",
    "lat": "19.971534",
    "lng": "105.651056"
  },
  {
    "city": "Ea Kar",
    "admin": "Đắk Lắk",
    "lat": "12.808161",
    "lng": "108.449006"
  },
  {
    "city": "Dầu Tiếng",
    "admin": "Bình Dương",
    "lat": "11.274102",
    "lng": "106.358793"
  },
  {
    "city": "Thị Trấn Nước Hai",
    "admin": "Cao Bằng",
    "lat": "22.737383",
    "lng": "106.152165"
  },
  {
    "city": "Văn Điển",
    "admin": "Hà Nội",
    "lat": "20.946301",
    "lng": "105.844998"
  },
  {
    "city": "Vân Đình",
    "admin": "Hà Nội",
    "lat": "20.735142",
    "lng": "105.772357"
  },
  {
    "city": "Thanh Chương",
    "admin": "Nghệ An",
    "lat": "18.778767",
    "lng": "105.33356"
  },
  {
    "city": "Tràm Chim",
    "admin": "Đồng Tháp",
    "lat": "10.670013",
    "lng": "105.564687"
  },
  {
    "city": "Tân Hòa",
    "admin": "Tiền Giang",
    "lat": "10.319057",
    "lng": "106.711278"
  },
  {
    "city": "Cẩm Thủy",
    "admin": "Thanh Hóa",
    "lat": "20.208661",
    "lng": "105.469498"
  },
  {
    "city": "Long Hồ",
    "admin": "Vĩnh Long",
    "lat": "10.192812",
    "lng": "106.012294"
  },
  {
    "city": "Sa Pa",
    "admin": "Lào Cai",
    "lat": "22.339578",
    "lng": "103.845615"
  },
  {
    "city": "Tân Kỳ",
    "admin": "Nghệ An",
    "lat": "19.047558",
    "lng": "105.268069"
  },
  {
    "city": "Hạ Hòa",
    "admin": "Phú Thọ",
    "lat": "21.563015",
    "lng": "105.005118"
  },
  {
    "city": "Sa Rài",
    "admin": "Đồng Tháp",
    "lat": "10.870164",
    "lng": "105.465832"
  },
  {
    "city": "Thị Trấn Đông Khê",
    "admin": "Cao Bằng",
    "lat": "22.42939",
    "lng": "106.431941"
  },
  {
    "city": "Thị Trấn Trùng Khánh",
    "admin": "Cao Bằng",
    "lat": "22.835136",
    "lng": "106.524961"
  },
  {
    "city": "Hòa Thành",
    "admin": "Tây Ninh",
    "lat": "11.28696",
    "lng": "106.129357"
  },
  {
    "city": "Củng Sơn",
    "admin": "Phú Yên",
    "lat": "13.049985",
    "lng": "108.978946"
  },
  {
    "city": "Duy Xuyên",
    "admin": "Quảng Nam",
    "lat": "15.828983",
    "lng": "108.259556"
  },
  {
    "city": "Hà Lam",
    "admin": "Quảng Nam",
    "lat": "15.738707",
    "lng": "108.350623"
  },
  {
    "city": "Thanh Nê",
    "admin": "Thái Bình",
    "lat": "20.388098",
    "lng": "106.438336"
  },
  {
    "city": "Thanh Xuân",
    "admin": "Hà Nội",
    "lat": "20.994725",
    "lng": "105.799768"
  },
  {
    "city": "Hòa Vang",
    "admin": "Đà Nẵng",
    "lat": "15.987636",
    "lng": "108.138927"
  },
  {
    "city": "Hoài Ân",
    "admin": "Bình Định",
    "lat": "14.363517",
    "lng": "108.964763"
  },
  {
    "city": "Phú Phong",
    "admin": "Bình Định",
    "lat": "13.909637",
    "lng": "108.919026"
  },
  {
    "city": "Thị Trấn Hòa Bình",
    "admin": "Bạc Liêu",
    "lat": "9.28471",
    "lng": "105.629162"
  },
  {
    "city": "Long Mỹ",
    "admin": "Hậu Giang",
    "lat": "9.681412",
    "lng": "105.572262"
  },
  {
    "city": "Hòn Đất",
    "admin": "Kiến Giang",
    "lat": "10.184617",
    "lng": "104.929594"
  },
  {
    "city": "Thị Trấn Vị Xuyên",
    "admin": "Hà Giang",
    "lat": "22.667621",
    "lng": "104.981907"
  },
  {
    "city": "Thị Trấn Việt Lâm",
    "admin": "Hà Giang",
    "lat": "22.624859",
    "lng": "104.959882"
  },
  {
    "city": "Sơn Thịnh",
    "admin": "Yên Bái",
    "lat": "21.56252",
    "lng": "104.594798"
  },
  {
    "city": "Tư Nghĩa",
    "admin": "Quảng Ngãi",
    "lat": "15.084514",
    "lng": "108.825996"
  },
  {
    "city": "Phù Yên",
    "admin": "Sơn La",
    "lat": "21.263308",
    "lng": "104.644389"
  },
  {
    "city": "Quảng Yên",
    "admin": "Quảng Ninh",
    "lat": "20.942096",
    "lng": "106.802698"
  },
  {
    "city": "Con Cuông",
    "admin": "Nghệ An",
    "lat": "19.049958",
    "lng": "104.881238"
  },
  {
    "city": "Thọ Xuân",
    "admin": "Thanh Hóa",
    "lat": "19.931333",
    "lng": "105.52179"
  },
  {
    "city": "Đồng Nai",
    "admin": "Lâm Đồng",
    "lat": "11.579808",
    "lng": "107.365179"
  },
  {
    "city": "Sông Mã",
    "admin": "Sơn La",
    "lat": "21.050913",
    "lng": "103.749872"
  },
  {
    "city": "Thường Tín",
    "admin": "Hà Nội",
    "lat": "20.868735",
    "lng": "105.861248"
  },
  {
    "city": "Kinh Môn",
    "admin": "Hải Dương",
    "lat": "20.989621",
    "lng": "106.555097"
  },
  {
    "city": "Tiểu Cần",
    "admin": "Trà Vinh",
    "lat": "9.811663",
    "lng": "106.190672"
  },
  {
    "city": "Quận Bảy",
    "admin": "Hồ Chí Minh",
    "lat": "10.711804",
    "lng": "106.736426"
  },
  {
    "city": "Vĩnh An",
    "admin": "Đồng Nai",
    "lat": "11.089007",
    "lng": "107.03516"
  },
  {
    "city": "Cao Phong",
    "admin": "Hòa Bình",
    "lat": "20.704457",
    "lng": "105.32063"
  },
  {
    "city": "Đắk Mil",
    "admin": "Đắk Nông",
    "lat": "12.449568",
    "lng": "107.622371"
  },
  {
    "city": "Cẩm Lệ",
    "admin": "Đà Nẵng",
    "lat": "16.017714",
    "lng": "108.203809"
  },
  {
    "city": "Phong Châu",
    "admin": "Phú Thọ",
    "lat": "21.406797",
    "lng": "105.31228"
  },
  {
    "city": "Lý Sơn",
    "admin": "Quảng Ngãi",
    "lat": "15.371978",
    "lng": "109.118912"
  },
  {
    "city": "Thạnh Hóa",
    "admin": "Long An",
    "lat": "10.657445",
    "lng": "106.180812"
  },
  {
    "city": "A Yun Pa",
    "admin": "Gia Lai",
    "lat": "13.400252",
    "lng": "108.435035"
  },
  {
    "city": "Hương Canh",
    "admin": "Vĩnh Phúc",
    "lat": "21.278823",
    "lng": "105.646968"
  },
  {
    "city": "Đồi Ngô",
    "admin": "Bắc Giang",
    "lat": "21.306263",
    "lng": "106.386734"
  },
  {
    "city": "Long Khánh",
    "admin": "Đồng Nai",
    "lat": "10.926549",
    "lng": "107.247827"
  },
  {
    "city": "Vĩnh Bảo",
    "admin": "Hải Phòng",
    "lat": "20.690762",
    "lng": "106.480613"
  },
  {
    "city": "Sa Đéc",
    "admin": "Đồng Tháp",
    "lat": "10.290852",
    "lng": "105.756347"
  },
  {
    "city": "Vương",
    "admin": "Hưng Yên",
    "lat": "20.701099",
    "lng": "106.117515"
  },
  {
    "city": "Thị Trấn Sìn Hồ",
    "admin": "Lai Châu",
    "lat": "22.366473",
    "lng": "103.234381"
  },
  {
    "city": "Hai Riêng",
    "admin": "Phú Yên",
    "lat": "12.979081",
    "lng": "108.897321"
  },
  {
    "city": "Đông Hưng",
    "admin": "Thái Bình",
    "lat": "20.556507",
    "lng": "106.355323"
  },
  {
    "city": "Mỹ Phước",
    "admin": "Tiền Giang",
    "lat": "10.477114",
    "lng": "106.19256"
  },
  {
    "city": "Thắng",
    "admin": "Bắc Giang",
    "lat": "21.355054",
    "lng": "105.983437"
  },
  {
    "city": "Trôi",
    "admin": "Hà Nội",
    "lat": "21.069533",
    "lng": "105.706464"
  },
  {
    "city": "Mường Lát",
    "admin": "Thanh Hóa",
    "lat": "20.529153",
    "lng": "104.601385"
  },
  {
    "city": "Điện Biên Phủ",
    "admin": "Điện Biên",
    "lat": "21.385371",
    "lng": "103.016052"
  },
  {
    "city": "Diễn Châu",
    "admin": "Nghệ An",
    "lat": "18.976519",
    "lng": "105.600339"
  },
  {
    "city": "Điện Bàn",
    "admin": "Quảng Nam",
    "lat": "15.888532",
    "lng": "108.254471"
  },
  {
    "city": "Ngũ Hành Sơn",
    "admin": "Đà Nẵng",
    "lat": "16.016178",
    "lng": "108.253355"
  },
  {
    "city": "Thị Trấn Giá Rai",
    "admin": "Bạc Liêu",
    "lat": "9.237887",
    "lng": "105.455237"
  },
  {
    "city": "Hương Khê",
    "admin": "Hà Tĩnh",
    "lat": "18.176688",
    "lng": "105.70019"
  },
  {
    "city": "Hoàn Kiếm",
    "admin": "Hà Nội",
    "lat": "21.028573",
    "lng": "105.850644"
  },
  {
    "city": "Hai BàTrưng",
    "admin": "Hà Nội",
    "lat": "21.013415",
    "lng": "105.847723"
  },
  {
    "city": "U Minh",
    "admin": "Cà Mau",
    "lat": "9.412863",
    "lng": "104.973532"
  },
  {
    "city": "Thị Trấn Tủa Chùa",
    "admin": "Điện Biên",
    "lat": "21.857713",
    "lng": "103.342596"
  },
  {
    "city": "Thị Trấn Tuần Giáo",
    "admin": "Điện Biên",
    "lat": "21.58992",
    "lng": "103.421787"
  },
  {
    "city": "Hoàn Lão",
    "admin": "Quảng Bình",
    "lat": "17.584359",
    "lng": "106.534247"
  },
  {
    "city": "Lâm Thao",
    "admin": "Phú Thọ",
    "lat": "21.3201",
    "lng": "105.291555"
  },
  {
    "city": "Chi Nê",
    "admin": "Hòa Bình",
    "lat": "20.490555",
    "lng": "105.778005"
  },
  {
    "city": "Tân Uyên",
    "admin": "Bình Dương",
    "lat": "11.060853",
    "lng": "106.798976"
  },
  {
    "city": "Yên Ninh",
    "admin": "Ninh Bình",
    "lat": "20.183962",
    "lng": "106.061211"
  },
  {
    "city": "Cái Tàu Hạ",
    "admin": "Đồng Tháp",
    "lat": "10.259731",
    "lng": "105.870438"
  },
  {
    "city": "Kỳ Anh",
    "admin": "Hà Tĩnh",
    "lat": "18.062434",
    "lng": "106.298319"
  },
  {
    "city": "Bồng Sơn",
    "admin": "Bình Định",
    "lat": "14.42907",
    "lng": "109.015596"
  },
  {
    "city": "Đắk Song",
    "admin": "Đắk Nông",
    "lat": "12.255176",
    "lng": "107.609239"
  },
  {
    "city": "Ngọc Hiển",
    "admin": "Cà Mau",
    "lat": "8.657243",
    "lng": "105.060207"
  },
  {
    "city": "Thị Trấn Cao Lộc",
    "admin": "Lạng Sơn",
    "lat": "21.8665",
    "lng": "106.768327"
  },
  {
    "city": "Núi Thành",
    "admin": "Quảng Nam",
    "lat": "15.431942",
    "lng": "108.659463"
  },
  {
    "city": "Kon Plông",
    "admin": "Kon Tum",
    "lat": "14.600636",
    "lng": "108.290883"
  },
  {
    "city": "Bình Thủy",
    "admin": "Cần Thơ",
    "lat": "10.074312",
    "lng": "105.739739"
  },
  {
    "city": "Đoan Hùng",
    "admin": "Phú Thọ",
    "lat": "21.622539",
    "lng": "105.184621"
  },
  {
    "city": "Bình Mỹ",
    "admin": "Hà Nam",
    "lat": "20.491213",
    "lng": "106.009549"
  },
  {
    "city": "Ngã Sáu",
    "admin": "Hậu Giang",
    "lat": "9.923029",
    "lng": "105.805421"
  },
  {
    "city": "Hà Tiên",
    "admin": "Kiến Giang",
    "lat": "10.3831",
    "lng": "104.487534"
  },
  {
    "city": "Hòa Bình",
    "admin": "Nghệ An",
    "lat": "19.263933",
    "lng": "104.472318"
  },
  {
    "city": "Ninh Hòa",
    "admin": "Khánh Hòa",
    "lat": "12.491869",
    "lng": "109.124955"
  },
  {
    "city": "Ninh Giang",
    "admin": "Hải Dương",
    "lat": "20.730831",
    "lng": "106.397892"
  },
  {
    "city": "Phố Châu",
    "admin": "Hà Tĩnh",
    "lat": "18.513347",
    "lng": "105.424111"
  },
  {
    "city": "Phú Túc",
    "admin": "Gia Lai",
    "lat": "13.196822",
    "lng": "108.690425"
  },
  {
    "city": "Củ Chi",
    "admin": "Hồ Chí Minh",
    "lat": "10.973333",
    "lng": "106.493247"
  },
  {
    "city": "Nghĩa Hành",
    "admin": "Quảng Ngãi",
    "lat": "15.045684",
    "lng": "108.777244"
  },
  {
    "city": "Quận Hai",
    "admin": "Hồ Chí Minh",
    "lat": "10.791558",
    "lng": "106.749475"
  },
  {
    "city": "Cành Nàng",
    "admin": "Thanh Hóa",
    "lat": "20.348033",
    "lng": "105.228811"
  },
  {
    "city": "Lộc Thắng",
    "admin": "Lâm Đồng",
    "lat": "11.628362",
    "lng": "107.835081"
  },
  {
    "city": "Núi Đối",
    "admin": "Hải Phòng",
    "lat": "20.750778",
    "lng": "106.668935"
  },
  {
    "city": "Thị Trấn Tân Yên",
    "admin": "Tuyên Quang",
    "lat": "22.0655",
    "lng": "105.034501"
  },
  {
    "city": "Lai Châu",
    "admin": "Lai Châu",
    "lat": "22.396437",
    "lng": "103.458239"
  },
  {
    "city": "Vĩnh Thuận",
    "admin": "Kiến Giang",
    "lat": "9.508016",
    "lng": "105.257467"
  },
  {
    "city": "Vĩnh Tường",
    "admin": "Vĩnh Phúc",
    "lat": "21.216497",
    "lng": "105.512494"
  },
  {
    "city": "Chúc Sơn",
    "admin": "Hà Nội",
    "lat": "20.923745",
    "lng": "105.701548"
  },
  {
    "city": "Thị Trấn Phố Lu",
    "admin": "Lào Cai",
    "lat": "22.319177",
    "lng": "104.187186"
  },
  {
    "city": "Yên Phú",
    "admin": "Hà Giang",
    "lat": "22.732229",
    "lng": "105.371455"
  },
  {
    "city": "Thanh Bình",
    "admin": "Đồng Tháp",
    "lat": "10.561903",
    "lng": "105.484114"
  },
  {
    "city": "Hóc Môn",
    "admin": "Hồ Chí Minh",
    "lat": "10.889101",
    "lng": "106.595326"
  },
  {
    "city": "Phú Mỹ",
    "admin": "An Giang",
    "lat": "10.592364",
    "lng": "105.355732"
  },
  {
    "city": "Quan Hóa",
    "admin": "Thanh Hóa",
    "lat": "20.384813",
    "lng": "105.100237"
  },
  {
    "city": "Ân Thi",
    "admin": "Hưng Yên",
    "lat": "20.818351",
    "lng": "106.091181"
  },
  {
    "city": "Gôi",
    "admin": "Nam Định",
    "lat": "20.333352",
    "lng": "106.078261"
  },
  {
    "city": "Thị Trấn Đồng Văn",
    "admin": "Hà Giang",
    "lat": "23.278408",
    "lng": "105.362909"
  },
  {
    "city": "Thị Trấn Vinh Quang",
    "admin": "Hà Giang",
    "lat": "22.740846",
    "lng": "104.679562"
  },
  {
    "city": "Yên Bình",
    "admin": "Hà Giang",
    "lat": "22.409891",
    "lng": "104.579492"
  },
  {
    "city": "Krông Kmar",
    "admin": "Đắk Lắk",
    "lat": "12.504501",
    "lng": "108.332877"
  },
  {
    "city": "Quỳ Châu",
    "admin": "Nghệ An",
    "lat": "19.552057",
    "lng": "105.093866"
  },
  {
    "city": "Quy Đạt",
    "admin": "Quảng Bình",
    "lat": "17.804592",
    "lng": "105.970436"
  },
  {
    "city": "Tây Trà",
    "admin": "Quảng Ngãi",
    "lat": "15.169483",
    "lng": "108.359978"
  },
  {
    "city": "Chợ Rã",
    "admin": "Bắc Kạn",
    "lat": "22.451119",
    "lng": "105.719075"
  },
  {
    "city": "Bằng Lũng",
    "admin": "Bắc Kạn",
    "lat": "22.157767",
    "lng": "105.595591"
  },
  {
    "city": "Phù Mỹ",
    "admin": "Bình Định",
    "lat": "14.171821",
    "lng": "109.048877"
  },
  {
    "city": "Chợ Gạo",
    "admin": "Tiền Giang",
    "lat": "10.349835",
    "lng": "106.463399"
  },
  {
    "city": "Than Uyên",
    "admin": "Lai Châu",
    "lat": "21.959073",
    "lng": "103.880012"
  }
]