[
    {
        "city": "Ho Chi Minh City", 
        "admin": "H\u1ed3 Ch\u00ed Minh", 
        "country": "Vietnam", 
        "population_proper": "3467331", 
        "iso2": "VN", 
        "capital": "admin", 
        "lat": "10.776577", 
        "lng": "106.70085", 
        "population": "5314000"
    }, 
    {
        "city": "Hanoi", 
        "admin": "H\u00e0 N\u1ed9i", 
        "country": "Vietnam", 
        "population_proper": "1431270", 
        "iso2": "VN", 
        "capital": "primary", 
        "lat": "21.028167", 
        "lng": "105.854152", 
        "population": "4378000"
    }, 
    {
        "city": "Haiphong", 
        "admin": "H\u1ea3i Ph\u00f2ng", 
        "country": "Vietnam", 
        "population_proper": "602695", 
        "iso2": "VN", 
        "capital": "admin", 
        "lat": "20.864807", 
        "lng": "106.683449", 
        "population": "1969000"
    }, 
    {
        "city": "C\u1ea7n Th\u01a1", 
        "admin": "C\u1ea7n Th\u01a1", 
        "country": "Vietnam", 
        "population_proper": "259598", 
        "iso2": "VN", 
        "capital": "admin", 
        "lat": "10.037105", 
        "lng": "105.788249", 
        "population": "1121000"
    }, 
    {
        "city": "\u0110\u00e0 N\u1eb5ng", 
        "admin": "\u0110\u00e0 N\u1eb5ng", 
        "country": "Vietnam", 
        "population_proper": "887069", 
        "iso2": "VN", 
        "capital": "admin", 
        "lat": "16.074806", 
        "lng": "108.223958", 
        "population": "1000000"
    }, 
    {
        "city": "Hu\u1ebf", 
        "admin": "Th\u1eeba Thi\u00ean-Hu\u1ebf", 
        "country": "Vietnam", 
        "population_proper": "340000", 
        "iso2": "VN", 
        "capital": "admin", 
        "lat": "16.461901", 
        "lng": "107.595458", 
        "population": "950000"
    }, 
    {
        "city": "Quy Nh\u01a1n", 
        "admin": "B\u00ecnh \u0110\u1ecbnh", 
        "country": "Vietnam", 
        "population_proper": "280900", 
        "iso2": "VN", 
        "capital": "admin", 
        "lat": "13.768898", 
        "lng": "109.228563", 
        "population": "805290"
    }, 
    {
        "city": "Hi\u1ec7p H\u00f2a", 
        "admin": "\u0110\u1ed3ng Nai", 
        "country": "Vietnam", 
        "population_proper": "652646", 
        "iso2": "VN", 
        "capital": "", 
        "lat": "10.933333", 
        "lng": "106.833333", 
        "population": "652646"
    }, 
    {
        "city": "Ph\u00fa Vinh", 
        "admin": "Ngh\u1ec7 An", 
        "country": "Vietnam", 
        "population_proper": "435208", 
        "iso2": "VN", 
        "capital": "", 
        "lat": "18.716667", 
        "lng": "105.7", 
        "population": "593645"
    }, 
    {
        "city": "Th\u00e0nh Ph\u1ed1 Th\u00e1i Nguy\u00ean", 
        "admin": "Th\u00e1i Nguy\u00ean", 
        "country": "Vietnam", 
        "population_proper": "330000", 
        "iso2": "VN", 
        "capital": "admin", 
        "lat": "21.59422", 
        "lng": "105.848172", 
        "population": "500000"
    }, 
    {
        "city": "Nha Trang", 
        "admin": "Kh\u00e1nh H\u00f2a", 
        "country": "Vietnam", 
        "population_proper": "283441", 
        "iso2": "VN", 
        "capital": "admin", 
        "lat": "12.248089", 
        "lng": "109.19436", 
        "population": "411556"
    }, 
    {
        "city": "C\u00e0 Mau", 
        "admin": "C\u00e0 Mau", 
        "country": "Vietnam", 
        "population_proper": "204895", 
        "iso2": "VN", 
        "capital": "admin", 
        "lat": "9.176817", 
        "lng": "105.152421", 
        "population": "356636"
    }, 
    {
        "city": "Vi\u1ec7t Tr\u00ec", 
        "admin": "Ph\u00fa Th\u1ecd", 
        "country": "Vietnam", 
        "population_proper": "260288", 
        "iso2": "VN", 
        "capital": "admin", 
        "lat": "21.32274", 
        "lng": "105.401981", 
        "population": "350000"
    }, 
    {
        "city": "Long Xuy\u00ean", 
        "admin": "An Giang", 
        "country": "Vietnam", 
        "population_proper": "158153", 
        "iso2": "VN", 
        "capital": "admin", 
        "lat": "10.386392", 
        "lng": "105.435178", 
        "population": "350000"
    }, 
    {
        "city": "Bu\u00f4n Ma Thu\u1ed9t", 
        "admin": "\u0110\u1eafk L\u1eafk", 
        "country": "Vietnam", 
        "population_proper": "146975", 
        "iso2": "VN", 
        "capital": "admin", 
        "lat": "12.674192", 
        "lng": "108.043542", 
        "population": "349945"
    }, 
    {
        "city": "Phan Thi\u1ebft", 
        "admin": "B\u00ecnh Thu\u1eadn", 
        "country": "Vietnam", 
        "population_proper": "160652", 
        "iso2": "VN", 
        "capital": "admin", 
        "lat": "10.928888", 
        "lng": "108.102078", 
        "population": "336846"
    }, 
    {
        "city": "X\u00f3m R\u1ea1ch Gi\u1ed3ng", 
        "admin": "Ki\u1ebfn Giang", 
        "country": "Vietnam", 
        "population_proper": "205660", 
        "iso2": "VN", 
        "capital": "", 
        "lat": "10.033333", 
        "lng": "105.066667", 
        "population": "300000"
    }, 
    {
        "city": "S\u00f3c Tr\u0103ng", 
        "admin": "S\u00f3c Tr\u0103ng", 
        "country": "Vietnam", 
        "population_proper": "173922", 
        "iso2": "VN", 
        "capital": "admin", 
        "lat": "9.599946", 
        "lng": "105.971932", 
        "population": "300000"
    }, 
    {
        "city": "\u0110\u00e0 L\u1ea1t", 
        "admin": "L\u00e2m \u0110\u1ed3ng", 
        "country": "Vietnam", 
        "population_proper": "131377", 
        "iso2": "VN", 
        "capital": "admin", 
        "lat": "11.935883", 
        "lng": "108.442891", 
        "population": "256019"
    }, 
    {
        "city": "Qu\u1ea3ng Ng\u00e3i", 
        "admin": "Qu\u1ea3ng Ng\u00e3i", 
        "country": "Vietnam", 
        "population_proper": "119251", 
        "iso2": "VN", 
        "capital": "admin", 
        "lat": "15.120467", 
        "lng": "108.792318", 
        "population": "250000"
    }, 
    {
        "city": "V\u0169ng T\u00e0u", 
        "admin": "B\u00e0 R\u1ecba-V\u0169ng T\u00e0u", 
        "country": "Vietnam", 
        "population_proper": "209683", 
        "iso2": "VN", 
        "capital": "admin", 
        "lat": "10.35", 
        "lng": "107.066667", 
        "population": "248767"
    }, 
    {
        "city": "Th\u1ee7 D\u1ea7u M\u1ed9t", 
        "admin": "B\u00ecnh D\u01b0\u01a1ng", 
        "country": "Vietnam", 
        "population_proper": "244277", 
        "iso2": "VN", 
        "capital": "admin", 
        "lat": "10.980396", 
        "lng": "106.651905", 
        "population": "244277"
    }, 
    {
        "city": "Th\u00e0nh Ph\u1ed1 Nam \u0110\u1ecbnh", 
        "admin": "Nam \u0110\u1ecbnh", 
        "country": "Vietnam", 
        "population_proper": "243186", 
        "iso2": "VN", 
        "capital": "admin", 
        "lat": "20.433886", 
        "lng": "106.177286", 
        "population": "243186"
    }, 
    {
        "city": "Th\u00e0nh ph\u1ed1 B\u1ea1c Li\u00eau", 
        "admin": "B\u1ea1c Li\u00eau", 
        "country": "Vietnam", 
        "population_proper": "150000", 
        "iso2": "VN", 
        "capital": "admin", 
        "lat": "9.294141", 
        "lng": "105.727764", 
        "population": "225000"
    }, 
    {
        "city": "Th\u00e0nh Ph\u1ed1 Th\u00e1i B\u00ecnh", 
        "admin": "Th\u00e1i B\u00ecnh", 
        "country": "Vietnam", 
        "population_proper": "210000", 
        "iso2": "VN", 
        "capital": "admin", 
        "lat": "20.45", 
        "lng": "106.340018", 
        "population": "210000"
    }, 
    {
        "city": "Tinh Xa", 
        "admin": "Thanh H\u00f3a", 
        "country": "Vietnam", 
        "population_proper": "197551", 
        "iso2": "VN", 
        "capital": "", 
        "lat": "19.8", 
        "lng": "105.783333", 
        "population": "197551"
    }, 
    {
        "city": "S\u01a1n Vi", 
        "admin": "H\u00e0 N\u1ed9i", 
        "country": "Vietnam", 
        "population_proper": "40636", 
        "iso2": "VN", 
        "capital": "", 
        "lat": "21.116667", 
        "lng": "105.533333", 
        "population": "189547"
    }, 
    {
        "city": "\u0110\u1ed9ng H\u1ecfi", 
        "admin": "Qu\u1ea3ng B\u00ecnh", 
        "country": "Vietnam", 
        "population_proper": "31040", 
        "iso2": "VN", 
        "capital": "", 
        "lat": "17.5", 
        "lng": "106.633333", 
        "population": "189265"
    }, 
    {
        "city": "Phan Rang-Th\u00e1p Ch\u00e0m", 
        "admin": "Ninh Thu\u1eadn", 
        "country": "Vietnam", 
        "population_proper": "91520", 
        "iso2": "VN", 
        "capital": "admin", 
        "lat": "11.564315", 
        "lng": "108.988581", 
        "population": "179773"
    }, 
    {
        "city": "H\u00e0 T\u0129nh", 
        "admin": "H\u00e0 T\u0129nh", 
        "country": "Vietnam", 
        "population_proper": "165396", 
        "iso2": "VN", 
        "capital": "admin", 
        "lat": "18.34282", 
        "lng": "105.905695", 
        "population": "165396"
    }, 
    {
        "city": "Cao L\u00e3nh", 
        "admin": "\u0110\u1ed3ng Th\u00e1p", 
        "country": "Vietnam", 
        "population_proper": "149837", 
        "iso2": "VN", 
        "capital": "admin", 
        "lat": "10.460171", 
        "lng": "105.632944", 
        "population": "149837"
    }, 
    {
        "city": "Th\u00e0nh Ph\u1ed1 L\u1ea1ng S\u01a1n", 
        "admin": "L\u1ea1ng S\u01a1n", 
        "country": "Vietnam", 
        "population_proper": "148000", 
        "iso2": "VN", 
        "capital": "admin", 
        "lat": "21.852639", 
        "lng": "106.76101", 
        "population": "148000"
    }, 
    {
        "city": "Cam Ranh", 
        "admin": "Kh\u00e1nh H\u00f2a", 
        "country": "Vietnam", 
        "population_proper": "23883", 
        "iso2": "VN", 
        "capital": "", 
        "lat": "11.9", 
        "lng": "109.216667", 
        "population": "146771"
    }, 
    {
        "city": "Plei Kh\u01b0n", 
        "admin": "Gia Lai", 
        "country": "Vietnam", 
        "population_proper": "114225", 
        "iso2": "VN", 
        "capital": "", 
        "lat": "13.95", 
        "lng": "108.033333", 
        "population": "142900"
    }, 
    {
        "city": "T\u00e2n An", 
        "admin": "Long An", 
        "country": "Vietnam", 
        "population_proper": "64801", 
        "iso2": "VN", 
        "capital": "admin", 
        "lat": "10.535893", 
        "lng": "106.41366", 
        "population": "137498"
    }, 
    {
        "city": "C\u1ea9m Ph\u1ea3 Mines", 
        "admin": "Qu\u1ea3ng Ninh", 
        "country": "Vietnam", 
        "population_proper": "16374", 
        "iso2": "VN", 
        "capital": "", 
        "lat": "21.016667", 
        "lng": "107.3", 
        "population": "135477"
    }, 
    {
        "city": "Tr\u00e0 Vinh", 
        "admin": "Tr\u00e0 Vinh", 
        "country": "Vietnam", 
        "population_proper": "131360", 
        "iso2": "VN", 
        "capital": "admin", 
        "lat": "9.947188", 
        "lng": "106.342249", 
        "population": "131360"
    }, 
    {
        "city": "Th\u00e0nh Ph\u1ed1 Ninh B\u00ecnh", 
        "admin": "Ninh B\u00ecnh", 
        "country": "Vietnam", 
        "population_proper": "130517", 
        "iso2": "VN", 
        "capital": "admin", 
        "lat": "20.258085", 
        "lng": "105.979651", 
        "population": "130517"
    }, 
    {
        "city": "T\u00e2y Ninh", 
        "admin": "T\u00e2y Ninh", 
        "country": "Vietnam", 
        "population_proper": "126370", 
        "iso2": "VN", 
        "capital": "admin", 
        "lat": "11.310043", 
        "lng": "106.098275", 
        "population": "126370"
    }, 
    {
        "city": "M\u1ef9 H\u00f2a", 
        "admin": "Ti\u1ec1n Giang", 
        "country": "Vietnam", 
        "population_proper": "122310", 
        "iso2": "VN", 
        "capital": "", 
        "lat": "10.37886", 
        "lng": "106.382463", 
        "population": "124143"
    }, 
    {
        "city": "Kon Tum", 
        "admin": "Kon Tum", 
        "country": "Vietnam", 
        "population_proper": "47409", 
        "iso2": "VN", 
        "capital": "", 
        "lat": "14.383333", 
        "lng": "107.983333", 
        "population": "105489"
    }, 
    {
        "city": "Th\u00e0nh Ph\u1ed1 H\u00f2a B\u00ecnh", 
        "admin": "H\u00f2a B\u00ecnh", 
        "country": "Vietnam", 
        "population_proper": "99502", 
        "iso2": "VN", 
        "capital": "admin", 
        "lat": "20.817166", 
        "lng": "105.33759", 
        "population": "105260"
    }, 
    {
        "city": "An Long", 
        "admin": "V\u0129nh Long", 
        "country": "Vietnam", 
        "population_proper": "103314", 
        "iso2": "VN", 
        "capital": "", 
        "lat": "10.284465", 
        "lng": "105.94246", 
        "population": "103314"
    }, 
    {
        "city": "Y\u00ean B\u00e1i", 
        "admin": "Y\u00ean B\u00e1i", 
        "country": "Vietnam", 
        "population_proper": "96540", 
        "iso2": "VN", 
        "capital": "admin", 
        "lat": "21.722881", 
        "lng": "104.911296", 
        "population": "96540"
    }, 
    {
        "city": "Qu\u1ea3ng Tr\u1ecb", 
        "admin": "Qu\u1ea3ng Tr\u1ecb", 
        "country": "Vietnam", 
        "population_proper": "72722", 
        "iso2": "VN", 
        "capital": "", 
        "lat": "16.75", 
        "lng": "107.2", 
        "population": "72722"
    }, 
    {
        "city": "Ch\u00e2u Phong", 
        "admin": "An Giang", 
        "country": "Vietnam", 
        "population_proper": "70239", 
        "iso2": "VN", 
        "capital": "", 
        "lat": "10.716667", 
        "lng": "105.133333", 
        "population": "70239"
    }, 
    {
        "city": "Tuy H\u00f2a", 
        "admin": "Ph\u00fa Y\u00ean", 
        "country": "Vietnam", 
        "population_proper": "69596", 
        "iso2": "VN", 
        "capital": "admin", 
        "lat": "13.095457", 
        "lng": "109.320939", 
        "population": "69596"
    }, 
    {
        "city": "L\u00e0o Cai", 
        "admin": "L\u00e0o Cai", 
        "country": "Vietnam", 
        "population_proper": "36502", 
        "iso2": "VN", 
        "capital": "admin", 
        "lat": "22.485555", 
        "lng": "103.970661", 
        "population": "67206"
    }, 
    {
        "city": "H\u00e0n Th\u01b0\u1ee3ng", 
        "admin": "H\u1ea3i D\u01b0\u01a1ng", 
        "country": "Vietnam", 
        "population_proper": "58030", 
        "iso2": "VN", 
        "capital": "", 
        "lat": "20.95", 
        "lng": "106.316667", 
        "population": "58030"
    }, 
    {
        "city": "B\u1eafc Giang", 
        "admin": "B\u1eafc Giang", 
        "country": "Vietnam", 
        "population_proper": "53728", 
        "iso2": "VN", 
        "capital": "admin", 
        "lat": "21.273073", 
        "lng": "106.194597", 
        "population": "53728"
    }, 
    {
        "city": "N\u00e0 Ho\u00e0ng", 
        "admin": "Cao B\u1eb1ng", 
        "country": "Vietnam", 
        "population_proper": "41112", 
        "iso2": "VN", 
        "capital": "", 
        "lat": "22.65", 
        "lng": "106.25", 
        "population": "41112"
    }, 
    {
        "city": "Th\u00e0nh Ph\u1ed1 H\u00e0 Giang", 
        "admin": "H\u00e0 Giang", 
        "country": "Vietnam", 
        "population_proper": "32690", 
        "iso2": "VN", 
        "capital": "admin", 
        "lat": "22.823333", 
        "lng": "104.983572", 
        "population": "38362"
    }, 
    {
        "city": "Th\u00e0nh Ph\u1ed1 Tuy\u00ean Quang", 
        "admin": "Tuy\u00ean Quang", 
        "country": "Vietnam", 
        "population_proper": "36430", 
        "iso2": "VN", 
        "capital": "admin", 
        "lat": "21.823559", 
        "lng": "105.21424", 
        "population": "36430"
    }, 
    {
        "city": "B\u1eafc K\u1ea1n", 
        "admin": "B\u1eafc K\u1ea1n", 
        "country": "Vietnam", 
        "population_proper": "29227", 
        "iso2": "VN", 
        "capital": "admin", 
        "lat": "22.147009", 
        "lng": "105.83481", 
        "population": "29227"
    }, 
    {
        "city": "B\u1ea3n L\u00e2n", 
        "admin": "S\u01a1n La", 
        "country": "Vietnam", 
        "population_proper": "19054", 
        "iso2": "VN", 
        "capital": "", 
        "lat": "21.333333", 
        "lng": "103.9", 
        "population": "19054"
    }, 
    {
        "city": "\u0110\u00f4ng H\u00e0", 
        "admin": "Qu\u1ea3ng Tr\u1ecb", 
        "country": "Vietnam", 
        "population_proper": "17662", 
        "iso2": "VN", 
        "capital": "admin", 
        "lat": "16.817615", 
        "lng": "107.100772", 
        "population": "17662"
    }, 
    {
        "city": "Lu\u00e2n Ch\u00e2u", 
        "admin": "\u0110i\u1ec7n Bi\u00ean", 
        "country": "Vietnam", 
        "population_proper": "7335", 
        "iso2": "VN", 
        "capital": "", 
        "lat": "21.733333", 
        "lng": "103.316667", 
        "population": "7335"
    }, 
    {
        "city": "Ki\u1ebfn \u0110\u1ee9c", 
        "admin": "\u0110\u1eafk N\u00f4ng", 
        "country": "Vietnam", 
        "population_proper": "", 
        "iso2": "VN", 
        "capital": "minor", 
        "lat": "11.992172", 
        "lng": "107.510893", 
        "population": ""
    }, 
    {
        "city": "K\u1ebb S\u1eb7t", 
        "admin": "H\u1ea3i D\u01b0\u01a1ng", 
        "country": "Vietnam", 
        "population_proper": "", 
        "iso2": "VN", 
        "capital": "minor", 
        "lat": "20.910072", 
        "lng": "106.147705", 
        "population": ""
    }, 
    {
        "city": "L\u1ed9c B\u00ecnh", 
        "admin": "L\u1ea1ng S\u01a1n", 
        "country": "Vietnam", 
        "population_proper": "", 
        "iso2": "VN", 
        "capital": "minor", 
        "lat": "21.758733", 
        "lng": "106.923346", 
        "population": ""
    }, 
    {
        "city": "Ph\u00fa H\u00f2a", 
        "admin": "Gia Lai", 
        "country": "Vietnam", 
        "population_proper": "", 
        "iso2": "VN", 
        "capital": "minor", 
        "lat": "14.100048", 
        "lng": "107.96896", 
        "population": ""
    }, 
    {
        "city": "\u0110\u1ea1i Ngh\u0129a", 
        "admin": "H\u00e0 N\u1ed9i", 
        "country": "Vietnam", 
        "population_proper": "", 
        "iso2": "VN", 
        "capital": "minor", 
        "lat": "20.68667", 
        "lng": "105.744712", 
        "population": ""
    }, 
    {
        "city": "C\u1ea9m Xuy\u00ean", 
        "admin": "H\u00e0 T\u0129nh", 
        "country": "Vietnam", 
        "population_proper": "", 
        "iso2": "VN", 
        "capital": "minor", 
        "lat": "18.250291", 
        "lng": "106.00132", 
        "population": ""
    }, 
    {
        "city": "Neo", 
        "admin": "B\u1eafc Giang", 
        "country": "Vietnam", 
        "population_proper": "", 
        "iso2": "VN", 
        "capital": "minor", 
        "lat": "21.20048", 
        "lng": "106.247387", 
        "population": ""
    }, 
    {
        "city": "Th\u1ecb Tr\u1ea5n H\u00f9ng Qu\u1ed1c", 
        "admin": "Cao B\u1eb1ng", 
        "country": "Vietnam", 
        "population_proper": "", 
        "iso2": "VN", 
        "capital": "minor", 
        "lat": "22.828977", 
        "lng": "106.323352", 
        "population": ""
    }, 
    {
        "city": "Tam \u0110\u1ea3o", 
        "admin": "V\u0129nh Ph\u00fac", 
        "country": "Vietnam", 
        "population_proper": "", 
        "iso2": "VN", 
        "capital": "minor", 
        "lat": "21.393237", 
        "lng": "105.614412", 
        "population": ""
    }, 
    {
        "city": "T\u00e2n Th\u1ea1nh", 
        "admin": "Long An", 
        "country": "Vietnam", 
        "population_proper": "", 
        "iso2": "VN", 
        "capital": "minor", 
        "lat": "10.606662", 
        "lng": "106.047142", 
        "population": ""
    }, 
    {
        "city": "Ph\u1ed1 M\u1edbi", 
        "admin": "B\u1eafc Ninh", 
        "country": "Vietnam", 
        "population_proper": "", 
        "iso2": "VN", 
        "capital": "minor", 
        "lat": "21.153281", 
        "lng": "106.151644", 
        "population": ""
    }, 
    {
        "city": "Ph\u00e1t Di\u1ec7m", 
        "admin": "Ninh B\u00ecnh", 
        "country": "Vietnam", 
        "population_proper": "", 
        "iso2": "VN", 
        "capital": "minor", 
        "lat": "20.090538", 
        "lng": "106.083226", 
        "population": ""
    }, 
    {
        "city": "V\u0169ng Li\u00eam", 
        "admin": "V\u0129nh Long", 
        "country": "Vietnam", 
        "population_proper": "", 
        "iso2": "VN", 
        "capital": "minor", 
        "lat": "10.095755", 
        "lng": "106.185479", 
        "population": ""
    }, 
    {
        "city": "Tri\u1ec7u S\u01a1n", 
        "admin": "Thanh H\u00f3a", 
        "country": "Vietnam", 
        "population_proper": "", 
        "iso2": "VN", 
        "capital": "minor", 
        "lat": "19.819128", 
        "lng": "105.603916", 
        "population": ""
    }, 
    {
        "city": "Qu\u1ea3ng Ph\u00fa", 
        "admin": "\u0110\u1eafk L\u1eafk", 
        "country": "Vietnam", 
        "population_proper": "", 
        "iso2": "VN", 
        "capital": "minor", 
        "lat": "12.819647", 
        "lng": "108.077381", 
        "population": ""
    }, 
    {
        "city": "R\u1eebng Th\u00f4ng", 
        "admin": "Thanh H\u00f3a", 
        "country": "Vietnam", 
        "population_proper": "", 
        "iso2": "VN", 
        "capital": "minor", 
        "lat": "19.81906", 
        "lng": "105.732795", 
        "population": ""
    }, 
    {
        "city": "M\u01b0\u1eddng Nh\u00e9", 
        "admin": "\u0110i\u1ec7n Bi\u00ean", 
        "country": "Vietnam", 
        "population_proper": "", 
        "iso2": "VN", 
        "capital": "minor", 
        "lat": "22.192362", 
        "lng": "102.457901", 
        "population": ""
    }, 
    {
        "city": "Sa Th\u1ea7y", 
        "admin": "Kon Tum", 
        "country": "Vietnam", 
        "population_proper": "", 
        "iso2": "VN", 
        "capital": "minor", 
        "lat": "14.413773", 
        "lng": "107.793393", 
        "population": ""
    }, 
    {
        "city": "Gia Ray", 
        "admin": "\u0110\u1ed3ng Nai", 
        "country": "Vietnam", 
        "population_proper": "", 
        "iso2": "VN", 
        "capital": "minor", 
        "lat": "10.926149", 
        "lng": "107.401722", 
        "population": ""
    }, 
    {
        "city": "Ng\u1ecdc L\u1eb7c", 
        "admin": "Thanh H\u00f3a", 
        "country": "Vietnam", 
        "population_proper": "", 
        "iso2": "VN", 
        "capital": "minor", 
        "lat": "20.091891", 
        "lng": "105.367607", 
        "population": ""
    }, 
    {
        "city": "\u0110\u1ea1 T\u1ebbh", 
        "admin": "L\u00e2m \u0110\u1ed3ng", 
        "country": "Vietnam", 
        "population_proper": "", 
        "iso2": "VN", 
        "capital": "minor", 
        "lat": "11.511481", 
        "lng": "107.490921", 
        "population": ""
    }, 
    {
        "city": "K\u1ef3 S\u01a1n", 
        "admin": "H\u00f2a B\u00ecnh", 
        "country": "Vietnam", 
        "population_proper": "", 
        "iso2": "VN", 
        "capital": "minor", 
        "lat": "20.886679", 
        "lng": "105.352438", 
        "population": ""
    }, 
    {
        "city": "Th\u1ecb Tr\u1ea5n V\u0129nh L\u1ed9c", 
        "admin": "Tuy\u00ean Quang", 
        "country": "Vietnam", 
        "population_proper": "", 
        "iso2": "VN", 
        "capital": "minor", 
        "lat": "22.143598", 
        "lng": "105.271918", 
        "population": ""
    }, 
    {
        "city": "T\u00f4 H\u1ea1p", 
        "admin": "Kh\u00e1nh H\u00f2a", 
        "country": "Vietnam", 
        "population_proper": "", 
        "iso2": "VN", 
        "capital": "minor", 
        "lat": "12.005815", 
        "lng": "108.94868", 
        "population": ""
    }, 
    {
        "city": "Khe Sanh", 
        "admin": "Qu\u1ea3ng Tr\u1ecb", 
        "country": "Vietnam", 
        "population_proper": "", 
        "iso2": "VN", 
        "capital": "minor", 
        "lat": "16.628248", 
        "lng": "106.73884", 
        "population": ""
    }, 
    {
        "city": "C\u00e1i N\u01b0\u1edbc", 
        "admin": "C\u00e0 Mau", 
        "country": "Vietnam", 
        "population_proper": "", 
        "iso2": "VN", 
        "capital": "minor", 
        "lat": "8.942308", 
        "lng": "105.014105", 
        "population": ""
    }, 
    {
        "city": "Kh\u00e1nh V\u0129nh", 
        "admin": "Kh\u00e1nh H\u00f2a", 
        "country": "Vietnam", 
        "population_proper": "", 
        "iso2": "VN", 
        "capital": "minor", 
        "lat": "12.283545", 
        "lng": "108.904703", 
        "population": ""
    }, 
    {
        "city": "C\u1ea7u Di\u1ec5n", 
        "admin": "H\u00e0 N\u1ed9i", 
        "country": "Vietnam", 
        "population_proper": "", 
        "iso2": "VN", 
        "capital": "minor", 
        "lat": "21.03929", 
        "lng": "105.766593", 
        "population": ""
    }, 
    {
        "city": "Ch\u1edd", 
        "admin": "B\u1eafc Ninh", 
        "country": "Vietnam", 
        "population_proper": "", 
        "iso2": "VN", 
        "capital": "minor", 
        "lat": "21.194911", 
        "lng": "105.954715", 
        "population": ""
    }, 
    {
        "city": "Ti\u00ean L\u00e3ng", 
        "admin": "H\u1ea3i Ph\u00f2ng", 
        "country": "Vietnam", 
        "population_proper": "", 
        "iso2": "VN", 
        "capital": "minor", 
        "lat": "20.724645", 
        "lng": "106.553906", 
        "population": ""
    }, 
    {
        "city": "G\u00f2 Quao", 
        "admin": "Ki\u1ebfn Giang", 
        "country": "Vietnam", 
        "population_proper": "", 
        "iso2": "VN", 
        "capital": "minor", 
        "lat": "9.733196", 
        "lng": "105.273935", 
        "population": ""
    }, 
    {
        "city": "Ph\u00fa Qu\u1ed1c", 
        "admin": "Ki\u1ebfn Giang", 
        "country": "Vietnam", 
        "population_proper": "", 
        "iso2": "VN", 
        "capital": "minor", 
        "lat": "10.216063", 
        "lng": "103.958709", 
        "population": ""
    }, 
    {
        "city": "V\u00e2n T\u00f9ng", 
        "admin": "B\u1eafc K\u1ea1n", 
        "country": "Vietnam", 
        "population_proper": "", 
        "iso2": "VN", 
        "capital": "minor", 
        "lat": "22.430819", 
        "lng": "105.996873", 
        "population": ""
    }, 
    {
        "city": "Qu\u1eadn Ch\u00edn", 
        "admin": "H\u1ed3 Ch\u00ed Minh", 
        "country": "Vietnam", 
        "population_proper": "", 
        "iso2": "VN", 
        "capital": "minor", 
        "lat": "10.839702", 
        "lng": "106.77093", 
        "population": ""
    }, 
    {
        "city": "Ba Tri", 
        "admin": "B\u1ebfn Tre", 
        "country": "Vietnam", 
        "population_proper": "", 
        "iso2": "VN", 
        "capital": "minor", 
        "lat": "10.044273", 
        "lng": "106.590203", 
        "population": ""
    }, 
    {
        "city": "Tr\u00e0 \u00d4n", 
        "admin": "V\u0129nh Long", 
        "country": "Vietnam", 
        "population_proper": "", 
        "iso2": "VN", 
        "capital": "minor", 
        "lat": "9.962606", 
        "lng": "105.921679", 
        "population": ""
    }, 
    {
        "city": "Kho\u00e1i Ch\u00e2u", 
        "admin": "H\u01b0ng Y\u00ean", 
        "country": "Vietnam", 
        "population_proper": "", 
        "iso2": "VN", 
        "capital": "minor", 
        "lat": "20.839116", 
        "lng": "105.977553", 
        "population": ""
    }, 
    {
        "city": "Nh\u00e0 B\u00e0ng", 
        "admin": "An Giang", 
        "country": "Vietnam", 
        "population_proper": "", 
        "iso2": "VN", 
        "capital": "minor", 
        "lat": "10.625024", 
        "lng": "105.008545", 
        "population": ""
    }, 
    {
        "city": "Th\u1ecb Tr\u1ea5n Long \u0110i\u1ec1n", 
        "admin": "B\u00e0 R\u1ecba-V\u0169ng T\u00e0u", 
        "country": "Vietnam", 
        "population_proper": "", 
        "iso2": "VN", 
        "capital": "minor", 
        "lat": "10.485573", 
        "lng": "107.212256", 
        "population": ""
    }, 
    {
        "city": "Anh S\u01a1n", 
        "admin": "Ngh\u1ec7 An", 
        "country": "Vietnam", 
        "population_proper": "", 
        "iso2": "VN", 
        "capital": "minor", 
        "lat": "18.932492", 
        "lng": "105.076012", 
        "population": ""
    }, 
    {
        "city": "Th\u1ecb Tr\u1ea5n Ngan D\u1eeba", 
        "admin": "B\u1ea1c Li\u00eau", 
        "country": "Vietnam", 
        "population_proper": "", 
        "iso2": "VN", 
        "capital": "minor", 
        "lat": "9.567033", 
        "lng": "105.450185", 
        "population": ""
    }, 
    {
        "city": "V\u0103n Quan", 
        "admin": "L\u1ea1ng S\u01a1n", 
        "country": "Vietnam", 
        "population_proper": "", 
        "iso2": "VN", 
        "capital": "minor", 
        "lat": "21.865156", 
        "lng": "106.539253", 
        "population": ""
    }, 
    {
        "city": "L\u1ea1c D\u01b0\u01a1ng", 
        "admin": "L\u00e2m \u0110\u1ed3ng", 
        "country": "Vietnam", 
        "population_proper": "", 
        "iso2": "VN", 
        "capital": "minor", 
        "lat": "12.004052", 
        "lng": "108.419051", 
        "population": ""
    }, 
    {
        "city": "Ch\u00ed Th\u1ea1nh", 
        "admin": "Ph\u00fa Y\u00ean", 
        "country": "Vietnam", 
        "population_proper": "", 
        "iso2": "VN", 
        "capital": "minor", 
        "lat": "13.308446", 
        "lng": "109.215217", 
        "population": ""
    }, 
    {
        "city": "\u0110\u1ed1ng \u0110a", 
        "admin": "H\u00e0 N\u1ed9i", 
        "country": "Vietnam", 
        "population_proper": "", 
        "iso2": "VN", 
        "capital": "minor", 
        "lat": "21.020087", 
        "lng": "105.830967", 
        "population": ""
    }, 
    {
        "city": "Ba \u0110\u00ecnh", 
        "admin": "H\u00e0 N\u1ed9i", 
        "country": "Vietnam", 
        "population_proper": "", 
        "iso2": "VN", 
        "capital": "minor", 
        "lat": "21.034072", 
        "lng": "105.814525", 
        "population": ""
    }, 
    {
        "city": "T\u00e2n Tr\u1ee5", 
        "admin": "Long An", 
        "country": "Vietnam", 
        "population_proper": "", 
        "iso2": "VN", 
        "capital": "minor", 
        "lat": "10.512708", 
        "lng": "106.507623", 
        "population": ""
    }, 
    {
        "city": "B\u1ebfn Tre", 
        "admin": "B\u1ebfn Tre", 
        "country": "Vietnam", 
        "population_proper": "", 
        "iso2": "VN", 
        "capital": "admin", 
        "lat": "10.241466", 
        "lng": "106.375852", 
        "population": ""
    }, 
    {
        "city": "Th\u1ed1t N\u1ed1t", 
        "admin": "C\u1ea7n Th\u01a1", 
        "country": "Vietnam", 
        "population_proper": "", 
        "iso2": "VN", 
        "capital": "minor", 
        "lat": "10.272133", 
        "lng": "105.533802", 
        "population": ""
    }, 
    {
        "city": "C\u1ea7u K\u00e8", 
        "admin": "Tr\u00e0 Vinh", 
        "country": "Vietnam", 
        "population_proper": "", 
        "iso2": "VN", 
        "capital": "minor", 
        "lat": "9.872403", 
        "lng": "106.054974", 
        "population": ""
    }, 
    {
        "city": "C\u1ea7u Gi\u00e1t", 
        "admin": "Ngh\u1ec7 An", 
        "country": "Vietnam", 
        "population_proper": "", 
        "iso2": "VN", 
        "capital": "minor", 
        "lat": "19.146003", 
        "lng": "105.630889", 
        "population": ""
    }, 
    {
        "city": "N\u00e0ng Mau", 
        "admin": "H\u1eadu Giang", 
        "country": "Vietnam", 
        "population_proper": "", 
        "iso2": "VN", 
        "capital": "minor", 
        "lat": "9.751292", 
        "lng": "105.534475", 
        "population": ""
    }, 
    {
        "city": "T\u00e2n Vi\u1ec7t", 
        "admin": "Cao B\u1eb1ng", 
        "country": "Vietnam", 
        "population_proper": "", 
        "iso2": "VN", 
        "capital": "minor", 
        "lat": "22.864075", 
        "lng": "105.459045", 
        "population": ""
    }, 
    {
        "city": "P\u00e1c Mi\u1ea7u", 
        "admin": "Cao B\u1eb1ng", 
        "country": "Vietnam", 
        "population_proper": "", 
        "iso2": "VN", 
        "capital": "minor", 
        "lat": "22.829681", 
        "lng": "105.49334", 
        "population": ""
    }, 
    {
        "city": "Ph\u00fa Th\u1ecd", 
        "admin": "Ph\u00fa Th\u1ecd", 
        "country": "Vietnam", 
        "population_proper": "", 
        "iso2": "VN", 
        "capital": "minor", 
        "lat": "21.399629", 
        "lng": "105.222208", 
        "population": ""
    }, 
    {
        "city": "M\u01b0\u1eddng Chi\u00ean", 
        "admin": "S\u01a1n La", 
        "country": "Vietnam", 
        "population_proper": "", 
        "iso2": "VN", 
        "capital": "minor", 
        "lat": "21.842399", 
        "lng": "103.566077", 
        "population": ""
    }, 
    {
        "city": "Ch\u1ee3 Chu", 
        "admin": "Th\u00e1i Nguy\u00ean", 
        "country": "Vietnam", 
        "population_proper": "", 
        "iso2": "VN", 
        "capital": "minor", 
        "lat": "21.907235", 
        "lng": "105.642194", 
        "population": ""
    }, 
    {
        "city": "H\u1eadu L\u1ed9c", 
        "admin": "Thanh H\u00f3a", 
        "country": "Vietnam", 
        "population_proper": "", 
        "iso2": "VN", 
        "capital": "minor", 
        "lat": "19.914441", 
        "lng": "105.886149", 
        "population": ""
    }, 
    {
        "city": "Y\u00ean Th\u00e0nh", 
        "admin": "Ngh\u1ec7 An", 
        "country": "Vietnam", 
        "population_proper": "", 
        "iso2": "VN", 
        "capital": "minor", 
        "lat": "18.998557", 
        "lng": "105.471158", 
        "population": ""
    }, 
    {
        "city": "Cam L\u00e2m", 
        "admin": "Kh\u00e1nh H\u00f2a", 
        "country": "Vietnam", 
        "population_proper": "", 
        "iso2": "VN", 
        "capital": "minor", 
        "lat": "12.053979", 
        "lng": "109.160038", 
        "population": ""
    }, 
    {
        "city": "Gia L\u1ed9c", 
        "admin": "H\u1ea3i D\u01b0\u01a1ng", 
        "country": "Vietnam", 
        "population_proper": "", 
        "iso2": "VN", 
        "capital": "minor", 
        "lat": "20.867828", 
        "lng": "106.300001", 
        "population": ""
    }, 
    {
        "city": "Ph\u00fa L\u1ed9c", 
        "admin": "S\u00f3c Tr\u0103ng", 
        "country": "Vietnam", 
        "population_proper": "", 
        "iso2": "VN", 
        "capital": "minor", 
        "lat": "9.428382", 
        "lng": "105.741112", 
        "population": ""
    }, 
    {
        "city": "L\u1ed9c Ninh", 
        "admin": "B\u00ecnh Ph\u01b0\u1edbc", 
        "country": "Vietnam", 
        "population_proper": "", 
        "iso2": "VN", 
        "capital": "minor", 
        "lat": "11.844756", 
        "lng": "106.590729", 
        "population": ""
    }, 
    {
        "city": "Gio Linh", 
        "admin": "Qu\u1ea3ng Tr\u1ecb", 
        "country": "Vietnam", 
        "population_proper": "", 
        "iso2": "VN", 
        "capital": "minor", 
        "lat": "16.924802", 
        "lng": "107.084385", 
        "population": ""
    }, 
    {
        "city": "\u0110i\u1ec7n Bi\u00ean \u0110\u00f4ng", 
        "admin": "\u0110i\u1ec7n Bi\u00ean", 
        "country": "Vietnam", 
        "population_proper": "", 
        "iso2": "VN", 
        "capital": "minor", 
        "lat": "21.296732", 
        "lng": "103.220093", 
        "population": ""
    }, 
    {
        "city": "Tam \u0110i\u1ec7p", 
        "admin": "Ninh B\u00ecnh", 
        "country": "Vietnam", 
        "population_proper": "", 
        "iso2": "VN", 
        "capital": "minor", 
        "lat": "20.156348", 
        "lng": "105.917367", 
        "population": ""
    }, 
    {
        "city": "\u0110\u1ee9c Ph\u1ed5", 
        "admin": "Qu\u1ea3ng Ng\u00e3i", 
        "country": "Vietnam", 
        "population_proper": "", 
        "iso2": "VN", 
        "capital": "minor", 
        "lat": "14.813554", 
        "lng": "108.959312", 
        "population": ""
    }, 
    {
        "city": "\u0110\u1ee9c Phong", 
        "admin": "B\u00ecnh Ph\u01b0\u1edbc", 
        "country": "Vietnam", 
        "population_proper": "", 
        "iso2": "VN", 
        "capital": "minor", 
        "lat": "11.813462", 
        "lng": "107.24433", 
        "population": ""
    }, 
    {
        "city": "M\u1ed9 \u0110\u1ee9c", 
        "admin": "Qu\u1ea3ng Ng\u00e3i", 
        "country": "Vietnam", 
        "population_proper": "", 
        "iso2": "VN", 
        "capital": "minor", 
        "lat": "14.95513", 
        "lng": "108.885863", 
        "population": ""
    }, 
    {
        "city": "Nam Giang", 
        "admin": "Nam \u0110\u1ecbnh", 
        "country": "Vietnam", 
        "population_proper": "", 
        "iso2": "VN", 
        "capital": "minor", 
        "lat": "20.333221", 
        "lng": "106.17754", 
        "population": ""
    }, 
    {
        "city": "\u0110\u00f4 L\u01b0\u01a1ng", 
        "admin": "Ngh\u1ec7 An", 
        "country": "Vietnam", 
        "population_proper": "", 
        "iso2": "VN", 
        "capital": "minor", 
        "lat": "18.898524", 
        "lng": "105.30797", 
        "population": ""
    }, 
    {
        "city": "V\u0169 Th\u01b0", 
        "admin": "Th\u00e1i B\u00ecnh", 
        "country": "Vietnam", 
        "population_proper": "", 
        "iso2": "VN", 
        "capital": "minor", 
        "lat": "20.43671", 
        "lng": "106.29116", 
        "population": ""
    }, 
    {
        "city": "Th\u1ecb Tr\u1ea5n Y\u00ean Th\u1ebf", 
        "admin": "Y\u00ean B\u00e1i", 
        "country": "Vietnam", 
        "population_proper": "", 
        "iso2": "VN", 
        "capital": "minor", 
        "lat": "22.11075", 
        "lng": "104.767475", 
        "population": ""
    }, 
    {
        "city": "Ea Dr\u0103ng", 
        "admin": "\u0110\u1eafk L\u1eafk", 
        "country": "Vietnam", 
        "population_proper": "", 
        "iso2": "VN", 
        "capital": "minor", 
        "lat": "13.204497", 
        "lng": "108.21029", 
        "population": ""
    }, 
    {
        "city": "B\u00ecnh Minh", 
        "admin": "V\u0129nh Long", 
        "country": "Vietnam", 
        "population_proper": "", 
        "iso2": "VN", 
        "capital": "minor", 
        "lat": "10.068206", 
        "lng": "105.822212", 
        "population": ""
    }, 
    {
        "city": "An Ph\u00fa", 
        "admin": "An Giang", 
        "country": "Vietnam", 
        "population_proper": "", 
        "iso2": "VN", 
        "capital": "minor", 
        "lat": "10.815913", 
        "lng": "105.090382", 
        "population": ""
    }, 
    {
        "city": "An L\u00e3o", 
        "admin": "B\u00ecnh \u0110\u1ecbnh", 
        "country": "Vietnam", 
        "population_proper": "", 
        "iso2": "VN", 
        "capital": "minor", 
        "lat": "14.612405", 
        "lng": "108.889897", 
        "population": ""
    }, 
    {
        "city": "\u0110\u1ed3ng L\u00ea", 
        "admin": "Qu\u1ea3ng B\u00ecnh", 
        "country": "Vietnam", 
        "population_proper": "", 
        "iso2": "VN", 
        "capital": "minor", 
        "lat": "17.883889", 
        "lng": "106.025362", 
        "population": ""
    }, 
    {
        "city": "L\u0169ng H\u1ed3", 
        "admin": "H\u00e0 Giang", 
        "country": "Vietnam", 
        "population_proper": "", 
        "iso2": "VN", 
        "capital": "minor", 
        "lat": "22.984788", 
        "lng": "105.239832", 
        "population": ""
    }, 
    {
        "city": "Th\u1ecb Tr\u1ea5n Y\u00ean Minh", 
        "admin": "H\u00e0 Giang", 
        "country": "Vietnam", 
        "population_proper": "", 
        "iso2": "VN", 
        "capital": "minor", 
        "lat": "23.117924", 
        "lng": "105.141593", 
        "population": ""
    }, 
    {
        "city": "Th\u1ecb Tr\u1ea5n \u0110\u1ea5t \u0110\u1ecf", 
        "admin": "B\u00e0 R\u1ecba-V\u0169ng T\u00e0u", 
        "country": "Vietnam", 
        "population_proper": "", 
        "iso2": "VN", 
        "capital": "minor", 
        "lat": "10.490934", 
        "lng": "107.270145", 
        "population": ""
    }, 
    {
        "city": "Ea T\u2019ling", 
        "admin": "\u0110\u1eafk N\u00f4ng", 
        "country": "Vietnam", 
        "population_proper": "", 
        "iso2": "VN", 
        "capital": "minor", 
        "lat": "12.589036", 
        "lng": "107.895784", 
        "population": ""
    }, 
    {
        "city": "B\u00fat S\u01a1n", 
        "admin": "Thanh H\u00f3a", 
        "country": "Vietnam", 
        "population_proper": "", 
        "iso2": "VN", 
        "capital": "minor", 
        "lat": "19.857967", 
        "lng": "105.854818", 
        "population": ""
    }, 
    {
        "city": "B\u00edch \u0110\u1ed9ng", 
        "admin": "B\u1eafc Giang", 
        "country": "Vietnam", 
        "population_proper": "", 
        "iso2": "VN", 
        "capital": "minor", 
        "lat": "21.274211", 
        "lng": "106.100689", 
        "population": ""
    }, 
    {
        "city": "Ph\u00f9 C\u00e1t", 
        "admin": "B\u00ecnh \u0110\u1ecbnh", 
        "country": "Vietnam", 
        "population_proper": "", 
        "iso2": "VN", 
        "capital": "minor", 
        "lat": "14.003158", 
        "lng": "109.058039", 
        "population": ""
    }, 
    {
        "city": "Ph\u00f9ng", 
        "admin": "H\u00e0 N\u1ed9i", 
        "country": "Vietnam", 
        "population_proper": "", 
        "iso2": "VN", 
        "capital": "minor", 
        "lat": "21.089025", 
        "lng": "105.659013", 
        "population": ""
    }, 
    {
        "city": "Tam B\u00ecnh", 
        "admin": "V\u0129nh Long", 
        "country": "Vietnam", 
        "population_proper": "", 
        "iso2": "VN", 
        "capital": "minor", 
        "lat": "10.048114", 
        "lng": "106.000171", 
        "population": ""
    }, 
    {
        "city": "T\u0129nh Gia", 
        "admin": "Thanh H\u00f3a", 
        "country": "Vietnam", 
        "population_proper": "", 
        "iso2": "VN", 
        "capital": "minor", 
        "lat": "19.44645", 
        "lng": "105.778613", 
        "population": ""
    }, 
    {
        "city": "Ph\u01b0\u1edbc V\u0129nh", 
        "admin": "B\u00ecnh D\u01b0\u01a1ng", 
        "country": "Vietnam", 
        "population_proper": "", 
        "iso2": "VN", 
        "capital": "minor", 
        "lat": "11.294661", 
        "lng": "106.795328", 
        "population": ""
    }, 
    {
        "city": "Long Th\u00e0nh", 
        "admin": "\u0110\u1ed3ng Nai", 
        "country": "Vietnam", 
        "population_proper": "", 
        "iso2": "VN", 
        "capital": "minor", 
        "lat": "10.789087", 
        "lng": "106.950295", 
        "population": ""
    }, 
    {
        "city": "\u0110\u1ea7m D\u01a1i", 
        "admin": "C\u00e0 Mau", 
        "country": "Vietnam", 
        "population_proper": "", 
        "iso2": "VN", 
        "capital": "minor", 
        "lat": "8.992138", 
        "lng": "105.196023", 
        "population": ""
    }, 
    {
        "city": "Th\u00e0nh Ph\u1ed1 H\u1ea3i D\u01b0\u01a1ng", 
        "admin": "H\u1ea3i D\u01b0\u01a1ng", 
        "country": "Vietnam", 
        "population_proper": "", 
        "iso2": "VN", 
        "capital": "admin", 
        "lat": "20.940994", 
        "lng": "106.333016", 
        "population": ""
    }, 
    {
        "city": "Th\u1ecb Tr\u1ea5n Na Hang", 
        "admin": "Tuy\u00ean Quang", 
        "country": "Vietnam", 
        "population_proper": "", 
        "iso2": "VN", 
        "capital": "minor", 
        "lat": "22.349175", 
        "lng": "105.382414", 
        "population": ""
    }, 
    {
        "city": "\u0110\u0103k \u0110oa", 
        "admin": "Gia Lai", 
        "country": "Vietnam", 
        "population_proper": "", 
        "iso2": "VN", 
        "capital": "minor", 
        "lat": "13.995006", 
        "lng": "108.112065", 
        "population": ""
    }, 
    {
        "city": "B\u1eafc S\u01a1n", 
        "admin": "L\u1ea1ng S\u01a1n", 
        "country": "Vietnam", 
        "population_proper": "", 
        "iso2": "VN", 
        "capital": "minor", 
        "lat": "21.899988", 
        "lng": "106.32077", 
        "population": ""
    }, 
    {
        "city": "Ia Pa", 
        "admin": "Gia Lai", 
        "country": "Vietnam", 
        "population_proper": "", 
        "iso2": "VN", 
        "capital": "minor", 
        "lat": "13.533615", 
        "lng": "108.455285", 
        "population": ""
    }, 
    {
        "city": "Ch\u00e2u Th\u00e0nh", 
        "admin": "T\u00e2y Ninh", 
        "country": "Vietnam", 
        "population_proper": "", 
        "iso2": "VN", 
        "capital": "minor", 
        "lat": "11.311674", 
        "lng": "106.029503", 
        "population": ""
    }, 
    {
        "city": "Me", 
        "admin": "Ninh B\u00ecnh", 
        "country": "Vietnam", 
        "population_proper": "", 
        "iso2": "VN", 
        "capital": "minor", 
        "lat": "20.346972", 
        "lng": "105.836149", 
        "population": ""
    }, 
    {
        "city": "Tr\u1edbi", 
        "admin": "Qu\u1ea3ng Ninh", 
        "country": "Vietnam", 
        "population_proper": "", 
        "iso2": "VN", 
        "capital": "minor", 
        "lat": "21.031409", 
        "lng": "106.991013", 
        "population": ""
    }, 
    {
        "city": "C\u00e1i Nhum", 
        "admin": "V\u0129nh Long", 
        "country": "Vietnam", 
        "population_proper": "", 
        "iso2": "VN", 
        "capital": "minor", 
        "lat": "10.174121", 
        "lng": "106.110506", 
        "population": ""
    }, 
    {
        "city": "Pleiku", 
        "admin": "Gia Lai", 
        "country": "Vietnam", 
        "population_proper": "", 
        "iso2": "VN", 
        "capital": "admin", 
        "lat": "13.983333", 
        "lng": "108.0", 
        "population": ""
    }, 
    {
        "city": "S\u01a1n T\u00e2y", 
        "admin": "H\u00e0 N\u1ed9i", 
        "country": "Vietnam", 
        "population_proper": "", 
        "iso2": "VN", 
        "capital": "minor", 
        "lat": "21.140534", 
        "lng": "105.506856", 
        "population": ""
    }, 
    {
        "city": "Y\u00ean \u0110\u1ecbnh", 
        "admin": "Nam \u0110\u1ecbnh", 
        "country": "Vietnam", 
        "population_proper": "", 
        "iso2": "VN", 
        "capital": "minor", 
        "lat": "20.201454", 
        "lng": "106.295785", 
        "population": ""
    }, 
    {
        "city": "L\u1eafk", 
        "admin": "\u0110\u1eafk L\u1eafk", 
        "country": "Vietnam", 
        "population_proper": "", 
        "iso2": "VN", 
        "capital": "minor", 
        "lat": "12.410865", 
        "lng": "108.176816", 
        "population": ""
    }, 
    {
        "city": "A L\u01b0\u1edbi", 
        "admin": "Th\u1eeba Thi\u00ean-Hu\u1ebf", 
        "country": "Vietnam", 
        "population_proper": "", 
        "iso2": "VN", 
        "capital": "minor", 
        "lat": "16.272282", 
        "lng": "107.233849", 
        "population": ""
    }, 
    {
        "city": "Th\u1ea1nh M\u1ef9", 
        "admin": "Qu\u1ea3ng Nam", 
        "country": "Vietnam", 
        "population_proper": "", 
        "iso2": "VN", 
        "capital": "minor", 
        "lat": "15.748889", 
        "lng": "107.836776", 
        "population": ""
    }, 
    {
        "city": "Ch\u01b0 Ty", 
        "admin": "Gia Lai", 
        "country": "Vietnam", 
        "population_proper": "", 
        "iso2": "VN", 
        "capital": "minor", 
        "lat": "13.805068", 
        "lng": "107.6961", 
        "population": ""
    }, 
    {
        "city": "Thanh L\u01b0u", 
        "admin": "H\u00e0 Nam", 
        "country": "Vietnam", 
        "population_proper": "", 
        "iso2": "VN", 
        "capital": "minor", 
        "lat": "20.473979", 
        "lng": "105.952682", 
        "population": ""
    }, 
    {
        "city": "\u00d4 M\u00f4n", 
        "admin": "C\u1ea7n Th\u01a1", 
        "country": "Vietnam", 
        "population_proper": "", 
        "iso2": "VN", 
        "capital": "minor", 
        "lat": "10.10974", 
        "lng": "105.623181", 
        "population": ""
    }, 
    {
        "city": "Th\u1ecb Tr\u1ea5n Qu\u1ea3ng Uy\u00ean", 
        "admin": "Cao B\u1eb1ng", 
        "country": "Vietnam", 
        "population_proper": "", 
        "iso2": "VN", 
        "capital": "minor", 
        "lat": "22.694988", 
        "lng": "106.44235", 
        "population": ""
    }, 
    {
        "city": "Ph\u1ee5ng Hi\u1ec7p", 
        "admin": "H\u1eadu Giang", 
        "country": "Vietnam", 
        "population_proper": "", 
        "iso2": "VN", 
        "capital": "minor", 
        "lat": "9.779723", 
        "lng": "105.733801", 
        "population": ""
    }, 
    {
        "city": "C\u00f9 Lao Dung", 
        "admin": "S\u00f3c Tr\u0103ng", 
        "country": "Vietnam", 
        "population_proper": "", 
        "iso2": "VN", 
        "capital": "minor", 
        "lat": "9.673137", 
        "lng": "106.148744", 
        "population": ""
    }, 
    {
        "city": "D\u01b0\u01a1ng Minh Ch\u00e2u", 
        "admin": "T\u00e2y Ninh", 
        "country": "Vietnam", 
        "population_proper": "", 
        "iso2": "VN", 
        "capital": "minor", 
        "lat": "11.38414", 
        "lng": "106.230776", 
        "population": ""
    }, 
    {
        "city": "Gi\u1ed3ng Tr\u00f4m", 
        "admin": "B\u1ebfn Tre", 
        "country": "Vietnam", 
        "population_proper": "", 
        "iso2": "VN", 
        "capital": "minor", 
        "lat": "10.150212", 
        "lng": "106.506057", 
        "population": ""
    }, 
    {
        "city": "Nam S\u00e1ch", 
        "admin": "H\u1ea3i D\u01b0\u01a1ng", 
        "country": "Vietnam", 
        "population_proper": "", 
        "iso2": "VN", 
        "capital": "minor", 
        "lat": "20.992053", 
        "lng": "106.336128", 
        "population": ""
    }, 
    {
        "city": "Thanh H\u00f3a", 
        "admin": "Thanh H\u00f3a", 
        "country": "Vietnam", 
        "population_proper": "", 
        "iso2": "VN", 
        "capital": "admin", 
        "lat": "19.8", 
        "lng": "105.766667", 
        "population": ""
    }, 
    {
        "city": "\u0110inh V\u0103n", 
        "admin": "L\u00e2m \u0110\u1ed3ng", 
        "country": "Vietnam", 
        "population_proper": "", 
        "iso2": "VN", 
        "capital": "minor", 
        "lat": "11.786241", 
        "lng": "108.242819", 
        "population": ""
    }, 
    {
        "city": "Qu\u1ea3ng H\u00e0", 
        "admin": "Qu\u1ea3ng Ninh", 
        "country": "Vietnam", 
        "population_proper": "", 
        "iso2": "VN", 
        "capital": "minor", 
        "lat": "21.4506", 
        "lng": "107.755918", 
        "population": ""
    }, 
    {
        "city": "Minh Long", 
        "admin": "Qu\u1ea3ng Ng\u00e3i", 
        "country": "Vietnam", 
        "population_proper": "", 
        "iso2": "VN", 
        "capital": "minor", 
        "lat": "14.93218", 
        "lng": "108.703279", 
        "population": ""
    }, 
    {
        "city": "Th\u1ecb Tr\u1ea5n Th\u1ea5t Kh\u00ea", 
        "admin": "L\u1ea1ng S\u01a1n", 
        "country": "Vietnam", 
        "population_proper": "", 
        "iso2": "VN", 
        "capital": "minor", 
        "lat": "22.255252", 
        "lng": "106.473593", 
        "population": ""
    }, 
    {
        "city": "V\u0129nh Th\u1ea1nh", 
        "admin": "B\u00ecnh \u0110\u1ecbnh", 
        "country": "Vietnam", 
        "population_proper": "", 
        "iso2": "VN", 
        "capital": "minor", 
        "lat": "14.108837", 
        "lng": "108.78381", 
        "population": ""
    }, 
    {
        "city": "Tr\u00e0 B\u1ed3ng", 
        "admin": "Qu\u1ea3ng Ng\u00e3i", 
        "country": "Vietnam", 
        "population_proper": "", 
        "iso2": "VN", 
        "capital": "minor", 
        "lat": "15.255691", 
        "lng": "108.517225", 
        "population": ""
    }, 
    {
        "city": "C\u1ea7u G\u1ed3", 
        "admin": "B\u1eafc Giang", 
        "country": "Vietnam", 
        "population_proper": "", 
        "iso2": "VN", 
        "capital": "minor", 
        "lat": "21.476786", 
        "lng": "106.126531", 
        "population": ""
    }, 
    {
        "city": "Th\u00e0nh Ph\u1ed1 S\u01a1n La", 
        "admin": "S\u01a1n La", 
        "country": "Vietnam", 
        "population_proper": "", 
        "iso2": "VN", 
        "capital": "admin", 
        "lat": "21.325598", 
        "lng": "103.91882", 
        "population": ""
    }, 
    {
        "city": "Th\u1ecb Tr\u1ea5n Na S\u1ea7m", 
        "admin": "L\u1ea1ng S\u01a1n", 
        "country": "Vietnam", 
        "population_proper": "", 
        "iso2": "VN", 
        "capital": "minor", 
        "lat": "22.056392", 
        "lng": "106.6151", 
        "population": ""
    }, 
    {
        "city": "H\u01b0\u01a1ng S\u01a1n", 
        "admin": "Th\u00e1i Nguy\u00ean", 
        "country": "Vietnam", 
        "population_proper": "", 
        "iso2": "VN", 
        "capital": "minor", 
        "lat": "21.460142", 
        "lng": "105.978142", 
        "population": ""
    }, 
    {
        "city": "Quan S\u01a1n", 
        "admin": "Thanh H\u00f3a", 
        "country": "Vietnam", 
        "population_proper": "", 
        "iso2": "VN", 
        "capital": "minor", 
        "lat": "20.259092", 
        "lng": "104.945212", 
        "population": ""
    }, 
    {
        "city": "An D\u01b0\u01a1ng", 
        "admin": "H\u1ea3i Ph\u00f2ng", 
        "country": "Vietnam", 
        "population_proper": "", 
        "iso2": "VN", 
        "capital": "minor", 
        "lat": "20.863816", 
        "lng": "106.613301", 
        "population": ""
    }, 
    {
        "city": "\u0110\u00f4ng Th\u00e0nh", 
        "admin": "Long An", 
        "country": "Vietnam", 
        "population_proper": "", 
        "iso2": "VN", 
        "capital": "minor", 
        "lat": "10.892205", 
        "lng": "106.306136", 
        "population": ""
    }, 
    {
        "city": "Gia B\u00ecnh", 
        "admin": "B\u1eafc Ninh", 
        "country": "Vietnam", 
        "population_proper": "", 
        "iso2": "VN", 
        "capital": "minor", 
        "lat": "21.059381", 
        "lng": "106.174684", 
        "population": ""
    }, 
    {
        "city": "Ba \u0110\u1ed3n", 
        "admin": "Qu\u1ea3ng B\u00ecnh", 
        "country": "Vietnam", 
        "population_proper": "", 
        "iso2": "VN", 
        "capital": "minor", 
        "lat": "17.753527", 
        "lng": "106.423547", 
        "population": ""
    }, 
    {
        "city": "Bi\u00ean H\u00f2a", 
        "admin": "\u0110\u1ed3ng Nai", 
        "country": "Vietnam", 
        "population_proper": "", 
        "iso2": "VN", 
        "capital": "admin", 
        "lat": "10.944689", 
        "lng": "106.824317", 
        "population": ""
    }, 
    {
        "city": "H\u01b0ng Y\u00ean", 
        "admin": "H\u01b0ng Y\u00ean", 
        "country": "Vietnam", 
        "population_proper": "", 
        "iso2": "VN", 
        "capital": "admin", 
        "lat": "20.646366", 
        "lng": "106.05112", 
        "population": ""
    }, 
    {
        "city": "Th\u1ee7 Th\u1eeba", 
        "admin": "Long An", 
        "country": "Vietnam", 
        "population_proper": "", 
        "iso2": "VN", 
        "capital": "minor", 
        "lat": "10.602317", 
        "lng": "106.402073", 
        "population": ""
    }, 
    {
        "city": "H\u1ed3 X\u00e1", 
        "admin": "Qu\u1ea3ng Tr\u1ecb", 
        "country": "Vietnam", 
        "population_proper": "", 
        "iso2": "VN", 
        "capital": "minor", 
        "lat": "17.068362", 
        "lng": "107.005198", 
        "population": ""
    }, 
    {
        "city": "Th\u1ecb Tr\u1ea5n B\u1ea3o L\u1ea1c", 
        "admin": "Cao B\u1eb1ng", 
        "country": "Vietnam", 
        "population_proper": "", 
        "iso2": "VN", 
        "capital": "minor", 
        "lat": "22.949239", 
        "lng": "105.68046", 
        "population": ""
    }, 
    {
        "city": "Ki\u00ean L\u01b0\u01a1ng", 
        "admin": "Ki\u1ebfn Giang", 
        "country": "Vietnam", 
        "population_proper": "", 
        "iso2": "VN", 
        "capital": "minor", 
        "lat": "10.286239", 
        "lng": "104.646159", 
        "population": ""
    }, 
    {
        "city": "Qu\u1ed1c Oai", 
        "admin": "H\u00e0 N\u1ed9i", 
        "country": "Vietnam", 
        "population_proper": "", 
        "iso2": "VN", 
        "capital": "minor", 
        "lat": "20.990187", 
        "lng": "105.640876", 
        "population": ""
    }, 
    {
        "city": "Th\u1ecb Tr\u1ea5n Xu\u00e2n Ho\u00e0", 
        "admin": "Cao B\u1eb1ng", 
        "country": "Vietnam", 
        "population_proper": "", 
        "iso2": "VN", 
        "capital": "minor", 
        "lat": "22.902427", 
        "lng": "106.077366", 
        "population": ""
    }, 
    {
        "city": "Thi\u00ean T\u1ed3n", 
        "admin": "Ninh B\u00ecnh", 
        "country": "Vietnam", 
        "population_proper": "", 
        "iso2": "VN", 
        "capital": "minor", 
        "lat": "20.299047", 
        "lng": "105.951976", 
        "population": ""
    }, 
    {
        "city": "Li\u00ean H\u01b0\u01a1ng", 
        "admin": "B\u00ecnh Thu\u1eadn", 
        "country": "Vietnam", 
        "population_proper": "", 
        "iso2": "VN", 
        "capital": "minor", 
        "lat": "11.227614", 
        "lng": "108.723664", 
        "population": ""
    }, 
    {
        "city": "H\u01b0\u01a1ng Tr\u00e0", 
        "admin": "Th\u1eeba Thi\u00ean-Hu\u1ebf", 
        "country": "Vietnam", 
        "population_proper": "", 
        "iso2": "VN", 
        "capital": "minor", 
        "lat": "16.525395", 
        "lng": "107.475501", 
        "population": ""
    }, 
    {
        "city": "H\u00f2a M\u1ea1c", 
        "admin": "H\u00e0 Nam", 
        "country": "Vietnam", 
        "population_proper": "", 
        "iso2": "VN", 
        "capital": "minor", 
        "lat": "20.641726", 
        "lng": "105.989001", 
        "population": ""
    }, 
    {
        "city": "Tri T\u00f4n", 
        "admin": "An Giang", 
        "country": "Vietnam", 
        "population_proper": "", 
        "iso2": "VN", 
        "capital": "minor", 
        "lat": "10.420202", 
        "lng": "105.000733", 
        "population": ""
    }, 
    {
        "city": "Nghi Xu\u00e2n", 
        "admin": "H\u00e0 T\u0129nh", 
        "country": "Vietnam", 
        "population_proper": "", 
        "iso2": "VN", 
        "capital": "minor", 
        "lat": "18.662059", 
        "lng": "105.755745", 
        "population": ""
    }, 
    {
        "city": "Th\u1ee9 M\u01b0\u1eddi M\u1ed9t", 
        "admin": "Ki\u1ebfn Giang", 
        "country": "Vietnam", 
        "population_proper": "", 
        "iso2": "VN", 
        "capital": "minor", 
        "lat": "9.611445", 
        "lng": "104.946502", 
        "population": ""
    }, 
    {
        "city": "Ch\u1ee3 M\u1edbi", 
        "admin": "An Giang", 
        "country": "Vietnam", 
        "population_proper": "", 
        "iso2": "VN", 
        "capital": "minor", 
        "lat": "10.551234", 
        "lng": "105.404406", 
        "population": ""
    }, 
    {
        "city": "Ch\u1ee3 L\u00e1ch", 
        "admin": "B\u1ebfn Tre", 
        "country": "Vietnam", 
        "population_proper": "", 
        "iso2": "VN", 
        "capital": "minor", 
        "lat": "10.260322", 
        "lng": "106.118918", 
        "population": ""
    }, 
    {
        "city": "B\u1eafc Ninh", 
        "admin": "B\u1eafc Ninh", 
        "country": "Vietnam", 
        "population_proper": "", 
        "iso2": "VN", 
        "capital": "admin", 
        "lat": "21.18608", 
        "lng": "106.076315", 
        "population": ""
    }, 
    {
        "city": "Kon D\u01a1ng", 
        "admin": "Gia Lai", 
        "country": "Vietnam", 
        "population_proper": "", 
        "iso2": "VN", 
        "capital": "minor", 
        "lat": "14.038863", 
        "lng": "108.250113", 
        "population": ""
    }, 
    {
        "city": "T\u00e2n Ph\u00fa", 
        "admin": "\u0110\u1ed3ng Nai", 
        "country": "Vietnam", 
        "population_proper": "", 
        "iso2": "VN", 
        "capital": "minor", 
        "lat": "11.272209", 
        "lng": "107.436547", 
        "population": ""
    }, 
    {
        "city": "Qu\u1eadn M\u01b0\u1eddi M\u1ed9t", 
        "admin": "H\u1ed3 Ch\u00ed Minh", 
        "country": "Vietnam", 
        "population_proper": "", 
        "iso2": "VN", 
        "capital": "minor", 
        "lat": "10.763829", 
        "lng": "106.643552", 
        "population": ""
    }, 
    {
        "city": "Qu\u1eadn M\u01b0\u1eddi", 
        "admin": "H\u1ed3 Ch\u00ed Minh", 
        "country": "Vietnam", 
        "population_proper": "", 
        "iso2": "VN", 
        "capital": "minor", 
        "lat": "10.768234", 
        "lng": "106.666324", 
        "population": ""
    }, 
    {
        "city": "Qu\u1eadn T\u00e2n Ph\u00fa", 
        "admin": "H\u1ed3 Ch\u00ed Minh", 
        "country": "Vietnam", 
        "population_proper": "", 
        "iso2": "VN", 
        "capital": "minor", 
        "lat": "10.783786", 
        "lng": "106.63704", 
        "population": ""
    }, 
    {
        "city": "Qu\u1eadn Ba", 
        "admin": "H\u1ed3 Ch\u00ed Minh", 
        "country": "Vietnam", 
        "population_proper": "", 
        "iso2": "VN", 
        "capital": "minor", 
        "lat": "10.774943", 
        "lng": "106.68628", 
        "population": ""
    }, 
    {
        "city": "Qu\u1eadn B\u00ecnh Th\u1ea1nh", 
        "admin": "H\u1ed3 Ch\u00ed Minh", 
        "country": "Vietnam", 
        "population_proper": "", 
        "iso2": "VN", 
        "capital": "minor", 
        "lat": "10.803251", 
        "lng": "106.696665", 
        "population": ""
    }, 
    {
        "city": "Kim T\u00e2n", 
        "admin": "Thanh H\u00f3a", 
        "country": "Vietnam", 
        "population_proper": "", 
        "iso2": "VN", 
        "capital": "minor", 
        "lat": "20.130533", 
        "lng": "105.674535", 
        "population": ""
    }, 
    {
        "city": "Ng\u00f4 \u0110\u1ed3ng", 
        "admin": "Nam \u0110\u1ecbnh", 
        "country": "Vietnam", 
        "population_proper": "", 
        "iso2": "VN", 
        "capital": "minor", 
        "lat": "20.282961", 
        "lng": "106.443473", 
        "population": ""
    }, 
    {
        "city": "M\u00f9 Cang Ch\u1ea3i", 
        "admin": "Y\u00ean B\u00e1i", 
        "country": "Vietnam", 
        "population_proper": "", 
        "iso2": "VN", 
        "capital": "minor", 
        "lat": "21.851254", 
        "lng": "104.08954", 
        "population": ""
    }, 
    {
        "city": "Th\u1ecb Tr\u1ea5n Nguy\u00ean B\u00ecnh", 
        "admin": "Cao B\u1eb1ng", 
        "country": "Vietnam", 
        "population_proper": "", 
        "iso2": "VN", 
        "capital": "minor", 
        "lat": "22.649952", 
        "lng": "105.959845", 
        "population": ""
    }, 
    {
        "city": "T\u00e1nh Linh", 
        "admin": "B\u00ecnh Thu\u1eadn", 
        "country": "Vietnam", 
        "population_proper": "", 
        "iso2": "VN", 
        "capital": "minor", 
        "lat": "11.084206", 
        "lng": "107.68095", 
        "population": ""
    }, 
    {
        "city": "\u0110\u1eafk M\u00e2m", 
        "admin": "\u0110\u1eafk N\u00f4ng", 
        "country": "Vietnam", 
        "population_proper": "", 
        "iso2": "VN", 
        "capital": "minor", 
        "lat": "12.457886", 
        "lng": "107.862461", 
        "population": ""
    }, 
    {
        "city": "Th\u00e0nh Ph\u1ed1 Cao B\u1eb1ng", 
        "admin": "Cao B\u1eb1ng", 
        "country": "Vietnam", 
        "population_proper": "", 
        "iso2": "VN", 
        "capital": "admin", 
        "lat": "22.665678", 
        "lng": "106.257858", 
        "population": ""
    }, 
    {
        "city": "V\u0129nh Tr\u1ee5", 
        "admin": "H\u00e0 Nam", 
        "country": "Vietnam", 
        "population_proper": "", 
        "iso2": "VN", 
        "capital": "minor", 
        "lat": "20.560195", 
        "lng": "106.028121", 
        "population": ""
    }, 
    {
        "city": "Ph\u01b0\u1edbc D\u00e2n", 
        "admin": "Ninh Thu\u1eadn", 
        "country": "Vietnam", 
        "population_proper": "", 
        "iso2": "VN", 
        "capital": "minor", 
        "lat": "11.526956", 
        "lng": "108.929958", 
        "population": ""
    }, 
    {
        "city": "T\u1ee9 K\u1ef3", 
        "admin": "H\u1ea3i D\u01b0\u01a1ng", 
        "country": "Vietnam", 
        "population_proper": "", 
        "iso2": "VN", 
        "capital": "minor", 
        "lat": "20.819141", 
        "lng": "106.406614", 
        "population": ""
    }, 
    {
        "city": "T\u00e2n Ch\u00e2u", 
        "admin": "T\u00e2y Ninh", 
        "country": "Vietnam", 
        "population_proper": "", 
        "iso2": "VN", 
        "capital": "minor", 
        "lat": "11.552017", 
        "lng": "106.172454", 
        "population": ""
    }, 
    {
        "city": "M\u01b0\u1eddng X\u00e9n", 
        "admin": "Ngh\u1ec7 An", 
        "country": "Vietnam", 
        "population_proper": "", 
        "iso2": "VN", 
        "capital": "minor", 
        "lat": "19.397954", 
        "lng": "104.152392", 
        "population": ""
    }, 
    {
        "city": "S\u00f4ng Thao", 
        "admin": "Ph\u00fa Th\u1ecd", 
        "country": "Vietnam", 
        "population_proper": "", 
        "iso2": "VN", 
        "capital": "minor", 
        "lat": "21.421304", 
        "lng": "105.133744", 
        "population": ""
    }, 
    {
        "city": "Ph\u00fa Vang", 
        "admin": "Th\u1eeba Thi\u00ean-Hu\u1ebf", 
        "country": "Vietnam", 
        "population_proper": "", 
        "iso2": "VN", 
        "capital": "minor", 
        "lat": "16.439108", 
        "lng": "107.714376", 
        "population": ""
    }, 
    {
        "city": "H\u1ea3i L\u0103ng", 
        "admin": "Qu\u1ea3ng Tr\u1ecb", 
        "country": "Vietnam", 
        "population_proper": "", 
        "iso2": "VN", 
        "capital": "minor", 
        "lat": "16.693474", 
        "lng": "107.251245", 
        "population": ""
    }, 
    {
        "city": "N\u00fai S\u1eadp", 
        "admin": "An Giang", 
        "country": "Vietnam", 
        "population_proper": "", 
        "iso2": "VN", 
        "capital": "minor", 
        "lat": "10.264779", 
        "lng": "105.266758", 
        "population": ""
    }, 
    {
        "city": "M\u1ecf C\u00e0y", 
        "admin": "B\u1ebfn Tre", 
        "country": "Vietnam", 
        "population_proper": "", 
        "iso2": "VN", 
        "capital": "minor", 
        "lat": "10.133124", 
        "lng": "106.335189", 
        "population": ""
    }, 
    {
        "city": "Tr\u00e2u Qu\u1ef3", 
        "admin": "H\u00e0 N\u1ed9i", 
        "country": "Vietnam", 
        "population_proper": "", 
        "iso2": "VN", 
        "capital": "minor", 
        "lat": "21.019507", 
        "lng": "105.936935", 
        "population": ""
    }, 
    {
        "city": "\u0110\u00ecnh L\u1eadp", 
        "admin": "L\u1ea1ng S\u01a1n", 
        "country": "Vietnam", 
        "population_proper": "", 
        "iso2": "VN", 
        "capital": "minor", 
        "lat": "21.54633", 
        "lng": "107.098125", 
        "population": ""
    }, 
    {
        "city": "Tam K\u1ef3", 
        "admin": "Qu\u1ea3ng Nam", 
        "country": "Vietnam", 
        "population_proper": "", 
        "iso2": "VN", 
        "capital": "admin", 
        "lat": "15.573642", 
        "lng": "108.474026", 
        "population": ""
    }, 
    {
        "city": "Th\u1ecb Tr\u1ea5n Thu\u1eadn Ch\u00e2u", 
        "admin": "S\u01a1n La", 
        "country": "Vietnam", 
        "population_proper": "", 
        "iso2": "VN", 
        "capital": "minor", 
        "lat": "21.43858", 
        "lng": "103.689932", 
        "population": ""
    }, 
    {
        "city": "Th\u1ecb Tr\u1ea5n Th\u00f4ng N\u00f4ng", 
        "admin": "Cao B\u1eb1ng", 
        "country": "Vietnam", 
        "population_proper": "", 
        "iso2": "VN", 
        "capital": "minor", 
        "lat": "22.784099", 
        "lng": "105.983201", 
        "population": ""
    }, 
    {
        "city": "Kr\u00f4ng N\u0103ng", 
        "admin": "\u0110\u1eafk L\u1eafk", 
        "country": "Vietnam", 
        "population_proper": "", 
        "iso2": "VN", 
        "capital": "minor", 
        "lat": "12.951698", 
        "lng": "108.34425", 
        "population": ""
    }, 
    {
        "city": "Thanh Ba", 
        "admin": "Ph\u00fa Th\u1ecd", 
        "country": "Vietnam", 
        "population_proper": "", 
        "iso2": "VN", 
        "capital": "minor", 
        "lat": "21.498805", 
        "lng": "105.141038", 
        "population": ""
    }, 
    {
        "city": "Y\u00ean Ch\u00e2u", 
        "admin": "S\u01a1n La", 
        "country": "Vietnam", 
        "population_proper": "", 
        "iso2": "VN", 
        "capital": "minor", 
        "lat": "21.045842", 
        "lng": "104.301006", 
        "population": ""
    }, 
    {
        "city": "Vinh", 
        "admin": "Ngh\u1ec7 An", 
        "country": "Vietnam", 
        "population_proper": "", 
        "iso2": "VN", 
        "capital": "admin", 
        "lat": "18.673365", 
        "lng": "105.692317", 
        "population": ""
    }, 
    {
        "city": "S\u01a1n T\u1ecbnh", 
        "admin": "Qu\u1ea3ng Ng\u00e3i", 
        "country": "Vietnam", 
        "population_proper": "", 
        "iso2": "VN", 
        "capital": "minor", 
        "lat": "15.158558", 
        "lng": "108.795816", 
        "population": ""
    }, 
    {
        "city": "R\u1ea1ch Gi\u00e1", 
        "admin": "Ki\u1ebfn Giang", 
        "country": "Vietnam", 
        "population_proper": "", 
        "iso2": "VN", 
        "capital": "admin", 
        "lat": "10.012447", 
        "lng": "105.080913", 
        "population": ""
    }, 
    {
        "city": "Thanh S\u01a1n", 
        "admin": "Ph\u00fa Th\u1ecd", 
        "country": "Vietnam", 
        "population_proper": "", 
        "iso2": "VN", 
        "capital": "minor", 
        "lat": "21.198669", 
        "lng": "105.178921", 
        "population": ""
    }, 
    {
        "city": "Thu\u1eadn Nam", 
        "admin": "B\u00ecnh Thu\u1eadn", 
        "country": "Vietnam", 
        "population_proper": "", 
        "iso2": "VN", 
        "capital": "minor", 
        "lat": "10.850039", 
        "lng": "107.87864", 
        "population": ""
    }, 
    {
        "city": "V\u0129nh L\u1ed9c", 
        "admin": "Thanh H\u00f3a", 
        "country": "Vietnam", 
        "population_proper": "", 
        "iso2": "VN", 
        "capital": "minor", 
        "lat": "20.054385", 
        "lng": "105.615675", 
        "population": ""
    }, 
    {
        "city": "V\u1ea1n Gi\u00e3", 
        "admin": "Kh\u00e1nh H\u00f2a", 
        "country": "Vietnam", 
        "population_proper": "", 
        "iso2": "VN", 
        "capital": "minor", 
        "lat": "12.692028", 
        "lng": "109.220688", 
        "population": ""
    }, 
    {
        "city": "B\u1ebfn L\u1ee9c", 
        "admin": "Long An", 
        "country": "Vietnam", 
        "population_proper": "", 
        "iso2": "VN", 
        "capital": "minor", 
        "lat": "10.636399", 
        "lng": "106.491036", 
        "population": ""
    }, 
    {
        "city": "Ch\u00e2u Th\u00e0nh", 
        "admin": "S\u00f3c Tr\u0103ng", 
        "country": "Vietnam", 
        "population_proper": "", 
        "iso2": "VN", 
        "capital": "minor", 
        "lat": "9.700703", 
        "lng": "105.902023", 
        "population": ""
    }, 
    {
        "city": "Nh\u01a1n Tr\u1ea1ch", 
        "admin": "\u0110\u1ed3ng Nai", 
        "country": "Vietnam", 
        "population_proper": "", 
        "iso2": "VN", 
        "capital": "minor", 
        "lat": "10.722936", 
        "lng": "106.883411", 
        "population": ""
    }, 
    {
        "city": "Th\u1edbi Lai", 
        "admin": "C\u1ea7n Th\u01a1", 
        "country": "Vietnam", 
        "population_proper": "", 
        "iso2": "VN", 
        "capital": "minor", 
        "lat": "10.065217", 
        "lng": "105.558626", 
        "population": ""
    }, 
    {
        "city": "Bu\u00f4n Tr\u1ea5p", 
        "admin": "\u0110\u1eafk L\u1eafk", 
        "country": "Vietnam", 
        "population_proper": "", 
        "iso2": "VN", 
        "capital": "minor", 
        "lat": "12.484783", 
        "lng": "108.02982", 
        "population": ""
    }, 
    {
        "city": "M\u2019\u0110r\u0103k", 
        "admin": "\u0110\u1eafk L\u1eafk", 
        "country": "Vietnam", 
        "population_proper": "", 
        "iso2": "VN", 
        "capital": "minor", 
        "lat": "12.74624", 
        "lng": "108.742805", 
        "population": ""
    }, 
    {
        "city": "Thanh Kh\u00ea", 
        "admin": "\u0110\u00e0 N\u1eb5ng", 
        "country": "Vietnam", 
        "population_proper": "", 
        "iso2": "VN", 
        "capital": "minor", 
        "lat": "16.070599", 
        "lng": "108.191021", 
        "population": ""
    }, 
    {
        "city": "Xu\u00e2n Tr\u01b0\u1eddng", 
        "admin": "Nam \u0110\u1ecbnh", 
        "country": "Vietnam", 
        "population_proper": "", 
        "iso2": "VN", 
        "capital": "minor", 
        "lat": "20.292273", 
        "lng": "106.332745", 
        "population": ""
    }, 
    {
        "city": "C\u1ea7n Giu\u1ed9c", 
        "admin": "Long An", 
        "country": "Vietnam", 
        "population_proper": "", 
        "iso2": "VN", 
        "capital": "minor", 
        "lat": "10.608571", 
        "lng": "106.671345", 
        "population": ""
    }, 
    {
        "city": "C\u1ea7n \u0110\u01b0\u1edbc", 
        "admin": "Long An", 
        "country": "Vietnam", 
        "population_proper": "", 
        "iso2": "VN", 
        "capital": "minor", 
        "lat": "10.509659", 
        "lng": "106.603078", 
        "population": ""
    }, 
    {
        "city": "Kr\u00f4ng Klang", 
        "admin": "Qu\u1ea3ng Tr\u1ecb", 
        "country": "Vietnam", 
        "population_proper": "", 
        "iso2": "VN", 
        "capital": "minor", 
        "lat": "16.689058", 
        "lng": "106.887397", 
        "population": ""
    }, 
    {
        "city": "S\u00f3c S\u01a1n", 
        "admin": "H\u00e0 N\u1ed9i", 
        "country": "Vietnam", 
        "population_proper": "", 
        "iso2": "VN", 
        "capital": "minor", 
        "lat": "21.25782", 
        "lng": "105.848943", 
        "population": ""
    }, 
    {
        "city": "Li\u00ean Quan", 
        "admin": "H\u00e0 N\u1ed9i", 
        "country": "Vietnam", 
        "population_proper": "", 
        "iso2": "VN", 
        "capital": "minor", 
        "lat": "21.057229", 
        "lng": "105.579191", 
        "population": ""
    }, 
    {
        "city": "Phong Th\u1ed5", 
        "admin": "Lai Ch\u00e2u", 
        "country": "Vietnam", 
        "population_proper": "", 
        "iso2": "VN", 
        "capital": "minor", 
        "lat": "22.544328", 
        "lng": "103.297765", 
        "population": ""
    }, 
    {
        "city": "B\u00e1t X\u00e1t", 
        "admin": "L\u00e0o Cai", 
        "country": "Vietnam", 
        "population_proper": "", 
        "iso2": "VN", 
        "capital": "minor", 
        "lat": "22.543109", 
        "lng": "103.889887", 
        "population": ""
    }, 
    {
        "city": "D\u0129 An", 
        "admin": "B\u00ecnh D\u01b0\u01a1ng", 
        "country": "Vietnam", 
        "population_proper": "", 
        "iso2": "VN", 
        "capital": "minor", 
        "lat": "10.906818", 
        "lng": "106.769396", 
        "population": ""
    }, 
    {
        "city": "V\u0129nh H\u01b0ng", 
        "admin": "Long An", 
        "country": "Vietnam", 
        "population_proper": "", 
        "iso2": "VN", 
        "capital": "minor", 
        "lat": "10.890667", 
        "lng": "105.78495", 
        "population": ""
    }, 
    {
        "city": "B\u00ecnh \u0110\u1ea1i", 
        "admin": "B\u1ebfn Tre", 
        "country": "Vietnam", 
        "population_proper": "", 
        "iso2": "VN", 
        "capital": "minor", 
        "lat": "10.189644", 
        "lng": "106.691494", 
        "population": ""
    }, 
    {
        "city": "V\u00f4i", 
        "admin": "B\u1eafc Giang", 
        "country": "Vietnam", 
        "population_proper": "", 
        "iso2": "VN", 
        "capital": "minor", 
        "lat": "21.355217", 
        "lng": "106.261502", 
        "population": ""
    }, 
    {
        "city": "T\u00e2n T\u00fac", 
        "admin": "H\u1ed3 Ch\u00ed Minh", 
        "country": "Vietnam", 
        "population_proper": "", 
        "iso2": "VN", 
        "capital": "minor", 
        "lat": "10.695412", 
        "lng": "106.591281", 
        "population": ""
    }, 
    {
        "city": "T\u00e2n Ph\u00fa", 
        "admin": "B\u00ecnh Ph\u01b0\u1edbc", 
        "country": "Vietnam", 
        "population_proper": "", 
        "iso2": "VN", 
        "capital": "minor", 
        "lat": "11.451193", 
        "lng": "106.868112", 
        "population": ""
    }, 
    {
        "city": "C\u1ed5 Ph\u00fac", 
        "admin": "Y\u00ean B\u00e1i", 
        "country": "Vietnam", 
        "population_proper": "", 
        "iso2": "VN", 
        "capital": "minor", 
        "lat": "21.75585", 
        "lng": "104.827684", 
        "population": ""
    }, 
    {
        "city": "T\u1ea7m Vu", 
        "admin": "Long An", 
        "country": "Vietnam", 
        "population_proper": "", 
        "iso2": "VN", 
        "capital": "minor", 
        "lat": "10.441137", 
        "lng": "106.467927", 
        "population": ""
    }, 
    {
        "city": "Ph\u00fac Y\u00ean", 
        "admin": "V\u0129nh Ph\u00fac", 
        "country": "Vietnam", 
        "population_proper": "", 
        "iso2": "VN", 
        "capital": "minor", 
        "lat": "21.236954", 
        "lng": "105.704831", 
        "population": ""
    }, 
    {
        "city": "C\u1ed5 L\u1ec5", 
        "admin": "Nam \u0110\u1ecbnh", 
        "country": "Vietnam", 
        "population_proper": "", 
        "iso2": "VN", 
        "capital": "minor", 
        "lat": "20.32336", 
        "lng": "106.265838", 
        "population": ""
    }, 
    {
        "city": "Th\u1ecb Tr\u1ea5n Tr\u1ea1m T\u1ea5u", 
        "admin": "Y\u00ean B\u00e1i", 
        "country": "Vietnam", 
        "population_proper": "", 
        "iso2": "VN", 
        "capital": "minor", 
        "lat": "21.466594", 
        "lng": "104.379657", 
        "population": ""
    }, 
    {
        "city": "Tr\u00e0 My", 
        "admin": "Qu\u1ea3ng Nam", 
        "country": "Vietnam", 
        "population_proper": "", 
        "iso2": "VN", 
        "capital": "minor", 
        "lat": "15.33965", 
        "lng": "108.220654", 
        "population": ""
    }, 
    {
        "city": "Kim S\u01a1n", 
        "admin": "Ngh\u1ec7 An", 
        "country": "Vietnam", 
        "population_proper": "", 
        "iso2": "VN", 
        "capital": "minor", 
        "lat": "19.604094", 
        "lng": "104.919033", 
        "population": ""
    }, 
    {
        "city": "Qu\u00e1n H\u00e0u", 
        "admin": "Qu\u1ea3ng B\u00ecnh", 
        "country": "Vietnam", 
        "population_proper": "", 
        "iso2": "VN", 
        "capital": "minor", 
        "lat": "17.404379", 
        "lng": "106.640715", 
        "population": ""
    }, 
    {
        "city": "C\u00e1i \u0110\u00f4i V\u00e0m", 
        "admin": "C\u00e0 Mau", 
        "country": "Vietnam", 
        "population_proper": "", 
        "iso2": "VN", 
        "capital": "minor", 
        "lat": "8.857065", 
        "lng": "104.811995", 
        "population": ""
    }, 
    {
        "city": "M\u00f3ng C\u00e1i", 
        "admin": "Qu\u1ea3ng Ninh", 
        "country": "Vietnam", 
        "population_proper": "", 
        "iso2": "VN", 
        "capital": "minor", 
        "lat": "21.524706", 
        "lng": "107.966195", 
        "population": ""
    }, 
    {
        "city": "Ch\u00e2u Th\u00e0nh", 
        "admin": "Tr\u00e0 Vinh", 
        "country": "Vietnam", 
        "population_proper": "", 
        "iso2": "VN", 
        "capital": "minor", 
        "lat": "9.869888", 
        "lng": "106.349394", 
        "population": ""
    }, 
    {
        "city": "L\u00e2m", 
        "admin": "Nam \u0110\u1ecbnh", 
        "country": "Vietnam", 
        "population_proper": "", 
        "iso2": "VN", 
        "capital": "minor", 
        "lat": "20.327734", 
        "lng": "106.012083", 
        "population": ""
    }, 
    {
        "city": "Cam L\u1ed9", 
        "admin": "Qu\u1ea3ng Tr\u1ecb", 
        "country": "Vietnam", 
        "population_proper": "", 
        "iso2": "VN", 
        "capital": "minor", 
        "lat": "16.807971", 
        "lng": "106.994053", 
        "population": ""
    }, 
    {
        "city": "V\u1ea1n H\u00e0", 
        "admin": "Thanh H\u00f3a", 
        "country": "Vietnam", 
        "population_proper": "", 
        "iso2": "VN", 
        "capital": "minor", 
        "lat": "19.886588", 
        "lng": "105.67879", 
        "population": ""
    }, 
    {
        "city": "Tr\u1ea7n V\u0103n Th\u1eddi", 
        "admin": "C\u00e0 Mau", 
        "country": "Vietnam", 
        "population_proper": "", 
        "iso2": "VN", 
        "capital": "minor", 
        "lat": "9.077127", 
        "lng": "104.979143", 
        "population": ""
    }, 
    {
        "city": "H\u1ed3", 
        "admin": "B\u1eafc Ninh", 
        "country": "Vietnam", 
        "population_proper": "", 
        "iso2": "VN", 
        "capital": "minor", 
        "lat": "21.06308", 
        "lng": "106.085704", 
        "population": ""
    }, 
    {
        "city": "M\u1ef9 Xuy\u00ean", 
        "admin": "S\u00f3c Tr\u0103ng", 
        "country": "Vietnam", 
        "population_proper": "", 
        "iso2": "VN", 
        "capital": "minor", 
        "lat": "9.560062", 
        "lng": "105.989839", 
        "population": ""
    }, 
    {
        "city": "Kh\u00e2m \u0110\u1ee9c", 
        "admin": "Qu\u1ea3ng Nam", 
        "country": "Vietnam", 
        "population_proper": "", 
        "iso2": "VN", 
        "capital": "minor", 
        "lat": "15.445076", 
        "lng": "107.793367", 
        "population": ""
    }, 
    {
        "city": "Ph\u00fac Th\u1ecd", 
        "admin": "H\u00e0 N\u1ed9i", 
        "country": "Vietnam", 
        "population_proper": "", 
        "iso2": "VN", 
        "capital": "minor", 
        "lat": "21.103449", 
        "lng": "105.545511", 
        "population": ""
    }, 
    {
        "city": "Th\u1ecb Tr\u1ea5n T\u00e0 L\u00f9ng", 
        "admin": "Cao B\u1eb1ng", 
        "country": "Vietnam", 
        "population_proper": "", 
        "iso2": "VN", 
        "capital": "minor", 
        "lat": "22.497904", 
        "lng": "106.566902", 
        "population": ""
    }, 
    {
        "city": "\u0110\u1eafk H\u00e0", 
        "admin": "Kon Tum", 
        "country": "Vietnam", 
        "population_proper": "", 
        "iso2": "VN", 
        "capital": "minor", 
        "lat": "14.513453", 
        "lng": "107.921022", 
        "population": ""
    }, 
    {
        "city": "Th\u1ecb Tr\u1ea5n M\u01b0\u1eddng Kh\u01b0\u01a1ng", 
        "admin": "L\u00e0o Cai", 
        "country": "Vietnam", 
        "population_proper": "", 
        "iso2": "VN", 
        "capital": "minor", 
        "lat": "22.761406", 
        "lng": "104.121556", 
        "population": ""
    }, 
    {
        "city": "Qu\u1ebf S\u01a1n", 
        "admin": "Qu\u1ea3ng Nam", 
        "country": "Vietnam", 
        "population_proper": "", 
        "iso2": "VN", 
        "capital": "minor", 
        "lat": "15.673556", 
        "lng": "108.220096", 
        "population": ""
    }, 
    {
        "city": "Tr\u1ea3ng B\u00e0ng", 
        "admin": "T\u00e2y Ninh", 
        "country": "Vietnam", 
        "population_proper": "", 
        "iso2": "VN", 
        "capital": "minor", 
        "lat": "11.029873", 
        "lng": "106.357505", 
        "population": ""
    }, 
    {
        "city": "Di Linh", 
        "admin": "L\u00e2m \u0110\u1ed3ng", 
        "country": "Vietnam", 
        "population_proper": "", 
        "iso2": "VN", 
        "capital": "minor", 
        "lat": "11.581531", 
        "lng": "108.076415", 
        "population": ""
    }, 
    {
        "city": "Kh\u00e1nh H\u1ea3i", 
        "admin": "Ninh Thu\u1eadn", 
        "country": "Vietnam", 
        "population_proper": "", 
        "iso2": "VN", 
        "capital": "minor", 
        "lat": "11.591048", 
        "lng": "109.040519", 
        "population": ""
    }, 
    {
        "city": "T\u00e2n Bi\u00ean", 
        "admin": "T\u00e2y Ninh", 
        "country": "Vietnam", 
        "population_proper": "", 
        "iso2": "VN", 
        "capital": "minor", 
        "lat": "11.544406", 
        "lng": "106.011608", 
        "population": ""
    }, 
    {
        "city": "Y\u00ean L\u1ea1c", 
        "admin": "V\u0129nh Ph\u00fac", 
        "country": "Vietnam", 
        "population_proper": "", 
        "iso2": "VN", 
        "capital": "minor", 
        "lat": "21.236463", 
        "lng": "105.572968", 
        "population": ""
    }, 
    {
        "city": "Y\u1ebfn L\u1ea1c", 
        "admin": "B\u1eafc K\u1ea1n", 
        "country": "Vietnam", 
        "population_proper": "", 
        "iso2": "VN", 
        "capital": "minor", 
        "lat": "22.23693", 
        "lng": "106.181489", 
        "population": ""
    }, 
    {
        "city": "V\u0129nh Long", 
        "admin": "V\u0129nh Long", 
        "country": "Vietnam", 
        "population_proper": "", 
        "iso2": "VN", 
        "capital": "admin", 
        "lat": "10.253692", 
        "lng": "105.972201", 
        "population": ""
    }, 
    {
        "city": "T\u00e2n Hi\u1ec7p", 
        "admin": "Ki\u1ebfn Giang", 
        "country": "Vietnam", 
        "population_proper": "", 
        "iso2": "VN", 
        "capital": "minor", 
        "lat": "10.117091", 
        "lng": "105.28578", 
        "population": ""
    }, 
    {
        "city": "T\u00e2n Hi\u1ec7p", 
        "admin": "Ti\u1ec1n Giang", 
        "country": "Vietnam", 
        "population_proper": "", 
        "iso2": "VN", 
        "capital": "minor", 
        "lat": "10.44905", 
        "lng": "106.343858", 
        "population": ""
    }, 
    {
        "city": "B\u1ebfn C\u1ea7u", 
        "admin": "T\u00e2y Ninh", 
        "country": "Vietnam", 
        "population_proper": "", 
        "iso2": "VN", 
        "capital": "minor", 
        "lat": "11.110506", 
        "lng": "106.179235", 
        "population": ""
    }, 
    {
        "city": "Th\u1ee9a", 
        "admin": "B\u1eafc Ninh", 
        "country": "Vietnam", 
        "population_proper": "", 
        "iso2": "VN", 
        "capital": "minor", 
        "lat": "21.019373", 
        "lng": "106.200443", 
        "population": ""
    }, 
    {
        "city": "S\u1ed1p C\u1ed9p", 
        "admin": "S\u01a1n La", 
        "country": "Vietnam", 
        "population_proper": "", 
        "iso2": "VN", 
        "capital": "minor", 
        "lat": "20.938815", 
        "lng": "103.597126", 
        "population": ""
    }, 
    {
        "city": "An Nh\u01a1n", 
        "admin": "B\u00ecnh \u0110\u1ecbnh", 
        "country": "Vietnam", 
        "population_proper": "", 
        "iso2": "VN", 
        "capital": "minor", 
        "lat": "13.885787", 
        "lng": "109.108229", 
        "population": ""
    }, 
    {
        "city": "Y\u00ean Th\u1ecbnh", 
        "admin": "Ninh B\u00ecnh", 
        "country": "Vietnam", 
        "population_proper": "", 
        "iso2": "VN", 
        "capital": "minor", 
        "lat": "20.162451", 
        "lng": "106.006974", 
        "population": ""
    }, 
    {
        "city": "Cam Ranh", 
        "admin": "Kh\u00e1nh H\u00f2a", 
        "country": "Vietnam", 
        "population_proper": "", 
        "iso2": "VN", 
        "capital": "minor", 
        "lat": "11.927318", 
        "lng": "109.160821", 
        "population": ""
    }, 
    {
        "city": "B\u00f9 \u0110\u1ed1p", 
        "admin": "B\u00ecnh Ph\u01b0\u1edbc", 
        "country": "Vietnam", 
        "population_proper": "", 
        "iso2": "VN", 
        "capital": "minor", 
        "lat": "11.954861", 
        "lng": "106.800177", 
        "population": ""
    }, 
    {
        "city": "Huy\u1ec7n Chi\u00eam H\u00f3a", 
        "admin": "Tuy\u00ean Quang", 
        "country": "Vietnam", 
        "population_proper": "", 
        "iso2": "VN", 
        "capital": "minor", 
        "lat": "22.144131", 
        "lng": "105.272775", 
        "population": ""
    }, 
    {
        "city": "Duy\u00ean H\u1ea3i", 
        "admin": "Tr\u00e0 Vinh", 
        "country": "Vietnam", 
        "population_proper": "", 
        "iso2": "VN", 
        "capital": "minor", 
        "lat": "9.63497", 
        "lng": "106.492367", 
        "population": ""
    }, 
    {
        "city": "S\u01a1n D\u01b0\u01a1ng", 
        "admin": "Tuy\u00ean Quang", 
        "country": "Vietnam", 
        "population_proper": "", 
        "iso2": "VN", 
        "capital": "minor", 
        "lat": "21.696756", 
        "lng": "105.399012", 
        "population": ""
    }, 
    {
        "city": "S\u01a1n H\u00e0", 
        "admin": "Qu\u1ea3ng Ng\u00e3i", 
        "country": "Vietnam", 
        "population_proper": "", 
        "iso2": "VN", 
        "capital": "minor", 
        "lat": "15.041933", 
        "lng": "108.469734", 
        "population": ""
    }, 
    {
        "city": "T\u00e2n S\u01a1n", 
        "admin": "Ninh Thu\u1eadn", 
        "country": "Vietnam", 
        "population_proper": "", 
        "iso2": "VN", 
        "capital": "minor", 
        "lat": "11.775213", 
        "lng": "108.784797", 
        "population": ""
    }, 
    {
        "city": "Ch\u00e2u Th\u00e0nh", 
        "admin": "B\u1ebfn Tre", 
        "country": "Vietnam", 
        "population_proper": "", 
        "iso2": "VN", 
        "capital": "minor", 
        "lat": "10.301218", 
        "lng": "106.357012", 
        "population": ""
    }, 
    {
        "city": "Ba T\u01a1", 
        "admin": "Qu\u1ea3ng Ng\u00e3i", 
        "country": "Vietnam", 
        "population_proper": "", 
        "iso2": "VN", 
        "capital": "minor", 
        "lat": "14.763595", 
        "lng": "108.732226", 
        "population": ""
    }, 
    {
        "city": "Th\u1ecb Tr\u1ea5n M\u01b0\u1eddng T\u00e8", 
        "admin": "Lai Ch\u00e2u", 
        "country": "Vietnam", 
        "population_proper": "", 
        "iso2": "VN", 
        "capital": "minor", 
        "lat": "22.380671", 
        "lng": "102.820107", 
        "population": ""
    }, 
    {
        "city": "Th\u1ecb Tr\u1ea5n Ph\u01b0\u1edbc B\u1eedu", 
        "admin": "B\u00e0 R\u1ecba-V\u0169ng T\u00e0u", 
        "country": "Vietnam", 
        "population_proper": "", 
        "iso2": "VN", 
        "capital": "minor", 
        "lat": "10.53472", 
        "lng": "107.40202", 
        "population": ""
    }, 
    {
        "city": "Ch\u0169", 
        "admin": "B\u1eafc Giang", 
        "country": "Vietnam", 
        "population_proper": "", 
        "iso2": "VN", 
        "capital": "minor", 
        "lat": "21.373793", 
        "lng": "106.566489", 
        "population": ""
    }, 
    {
        "city": "T\u00e2n H\u01b0ng", 
        "admin": "Long An", 
        "country": "Vietnam", 
        "population_proper": "", 
        "iso2": "VN", 
        "capital": "minor", 
        "lat": "10.83476", 
        "lng": "105.661354", 
        "population": ""
    }, 
    {
        "city": "Ph\u01b0\u1edbc An", 
        "admin": "\u0110\u1eafk L\u1eafk", 
        "country": "Vietnam", 
        "population_proper": "", 
        "iso2": "VN", 
        "capital": "minor", 
        "lat": "12.712981", 
        "lng": "108.301485", 
        "population": ""
    }, 
    {
        "city": "Th\u00e0nh Ph\u1ed1 H\u1ea1 Long", 
        "admin": "Qu\u1ea3ng Ninh", 
        "country": "Vietnam", 
        "population_proper": "", 
        "iso2": "VN", 
        "capital": "admin", 
        "lat": "20.950452", 
        "lng": "107.073361", 
        "population": ""
    }, 
    {
        "city": "Ch\u01b0 Pr\u00f4ng", 
        "admin": "Gia Lai", 
        "country": "Vietnam", 
        "population_proper": "", 
        "iso2": "VN", 
        "capital": "minor", 
        "lat": "13.756836", 
        "lng": "107.886237", 
        "population": ""
    }, 
    {
        "city": "V\u0129nh Ch\u00e2u", 
        "admin": "S\u00f3c Tr\u0103ng", 
        "country": "Vietnam", 
        "population_proper": "", 
        "iso2": "VN", 
        "capital": "minor", 
        "lat": "9.32439", 
        "lng": "105.980065", 
        "population": ""
    }, 
    {
        "city": "C\u00e1t B\u00e0", 
        "admin": "H\u1ea3i Ph\u00f2ng", 
        "country": "Vietnam", 
        "population_proper": "", 
        "iso2": "VN", 
        "capital": "minor", 
        "lat": "20.727786", 
        "lng": "107.048186", 
        "population": ""
    }, 
    {
        "city": "V\u0169 Quang", 
        "admin": "H\u00e0 T\u0129nh", 
        "country": "Vietnam", 
        "population_proper": "", 
        "iso2": "VN", 
        "capital": "minor", 
        "lat": "18.38385", 
        "lng": "105.505904", 
        "population": ""
    }, 
    {
        "city": "Ph\u00fa L\u1ed9c", 
        "admin": "Th\u1eeba Thi\u00ean-Hu\u1ebf", 
        "country": "Vietnam", 
        "population_proper": "", 
        "iso2": "VN", 
        "capital": "minor", 
        "lat": "16.280351", 
        "lng": "107.858984", 
        "population": ""
    }, 
    {
        "city": "L\u1ea5p V\u00f2", 
        "admin": "\u0110\u1ed3ng Th\u00e1p", 
        "country": "Vietnam", 
        "population_proper": "", 
        "iso2": "VN", 
        "capital": "minor", 
        "lat": "10.361613", 
        "lng": "105.51924", 
        "population": ""
    }, 
    {
        "city": "\u0110\u1ed3ng Xu\u00e2n", 
        "admin": "Ph\u00fa Y\u00ean", 
        "country": "Vietnam", 
        "population_proper": "", 
        "iso2": "VN", 
        "capital": "minor", 
        "lat": "13.377324", 
        "lng": "109.108068", 
        "population": ""
    }, 
    {
        "city": "Ea S\u00fap", 
        "admin": "\u0110\u1eafk L\u1eafk", 
        "country": "Vietnam", 
        "population_proper": "", 
        "iso2": "VN", 
        "capital": "minor", 
        "lat": "13.066164", 
        "lng": "107.885463", 
        "population": ""
    }, 
    {
        "city": "C\u00f4 T\u00f4", 
        "admin": "Qu\u1ea3ng Ninh", 
        "country": "Vietnam", 
        "population_proper": "", 
        "iso2": "VN", 
        "capital": "minor", 
        "lat": "20.972681", 
        "lng": "107.765779", 
        "population": ""
    }, 
    {
        "city": "Th\u1edbi B\u00ecnh", 
        "admin": "C\u00e0 Mau", 
        "country": "Vietnam", 
        "population_proper": "", 
        "iso2": "VN", 
        "capital": "minor", 
        "lat": "9.355842", 
        "lng": "105.099292", 
        "population": ""
    }, 
    {
        "city": "Ma \u0110a Gui", 
        "admin": "L\u00e2m \u0110\u1ed3ng", 
        "country": "Vietnam", 
        "population_proper": "", 
        "iso2": "VN", 
        "capital": "minor", 
        "lat": "11.387022", 
        "lng": "107.535081", 
        "population": ""
    }, 
    {
        "city": "\u00c1i T\u1eed", 
        "admin": "Qu\u1ea3ng Tr\u1ecb", 
        "country": "Vietnam", 
        "population_proper": "", 
        "iso2": "VN", 
        "capital": "minor", 
        "lat": "16.768857", 
        "lng": "107.165043", 
        "population": ""
    }, 
    {
        "city": "Ph\u1ee7 Th\u00f4ng", 
        "admin": "B\u1eafc K\u1ea1n", 
        "country": "Vietnam", 
        "population_proper": "", 
        "iso2": "VN", 
        "capital": "minor", 
        "lat": "22.273137", 
        "lng": "105.879434", 
        "population": ""
    }, 
    {
        "city": "Qu\u1ef3nh C\u00f4i", 
        "admin": "Th\u00e1i B\u00ecnh", 
        "country": "Vietnam", 
        "population_proper": "", 
        "iso2": "VN", 
        "capital": "minor", 
        "lat": "20.661918", 
        "lng": "106.327445", 
        "population": ""
    }, 
    {
        "city": "C\u1ea7n Gi\u1edd", 
        "admin": "H\u1ed3 Ch\u00ed Minh", 
        "country": "Vietnam", 
        "population_proper": "", 
        "iso2": "VN", 
        "capital": "minor", 
        "lat": "10.411149", 
        "lng": "106.954737", 
        "population": ""
    }, 
    {
        "city": "H\u00e1t L\u00f3t", 
        "admin": "S\u01a1n La", 
        "country": "Vietnam", 
        "population_proper": "", 
        "iso2": "VN", 
        "capital": "minor", 
        "lat": "21.197329", 
        "lng": "104.105953", 
        "population": ""
    }, 
    {
        "city": "N\u0103m C\u0103n", 
        "admin": "C\u00e0 Mau", 
        "country": "Vietnam", 
        "population_proper": "", 
        "iso2": "VN", 
        "capital": "minor", 
        "lat": "8.758988", 
        "lng": "104.992851", 
        "population": ""
    }, 
    {
        "city": "Tr\u00e0 C\u00fa", 
        "admin": "Tr\u00e0 Vinh", 
        "country": "Vietnam", 
        "population_proper": "", 
        "iso2": "VN", 
        "capital": "minor", 
        "lat": "9.697741", 
        "lng": "106.258339", 
        "population": ""
    }, 
    {
        "city": "H\u01b0ng H\u00e0", 
        "admin": "Th\u00e1i B\u00ecnh", 
        "country": "Vietnam", 
        "population_proper": "", 
        "iso2": "VN", 
        "capital": "minor", 
        "lat": "20.5904", 
        "lng": "106.22445", 
        "population": ""
    }, 
    {
        "city": "M\u01b0\u1eddng Kh\u1ebfn", 
        "admin": "H\u00f2a B\u00ecnh", 
        "country": "Vietnam", 
        "population_proper": "", 
        "iso2": "VN", 
        "capital": "minor", 
        "lat": "20.614414", 
        "lng": "105.279477", 
        "population": ""
    }, 
    {
        "city": "S\u01a1n Tr\u00e0", 
        "admin": "\u0110\u00e0 N\u1eb5ng", 
        "country": "Vietnam", 
        "population_proper": "", 
        "iso2": "VN", 
        "capital": "minor", 
        "lat": "16.060681", 
        "lng": "108.232563", 
        "population": ""
    },